"","City_code","lon","lat","num_tweets"
"1","ABBEVILLE SC",-82.37889099,34.1785202,2
"2","ABERDEEN MD",-76.16343689,39.50980759,5
"3","ABERDEEN NC",-79.42922211,35.13199615,2
"4","ABERDEEN SD",-98.48273468,45.46180344,21
"5","ABERDEEN WA",-123.81813812,46.97493744,46
"6","ABERNATHY TX",-101.84558868,33.829319,1
"7","ABILENE KS",-97.21461487,38.9171524,42
"8","ABILENE TX",-99.73384094,32.44894028,133
"9","ABINGDON IL",-90.40194702,40.80449295,1
"10","ABINGDON VA",-81.97711945,36.7100563,2
"11","ABINGTON MA",-70.94435883,42.1049118,2
"12","ABINGTON PA",-75.11743164,40.12073898,11
"13","ABSECON NJ",-74.49462128,39.42850494,284
"14","ACCIDENT MD",-79.31906891,39.62875366,2
"15","ACKERMAN MS",-89.17317963,33.31027222,1
"16","ACTON MA",-71.43197632,42.48540115,48
"17","ACWORTH GA",-84.67662811,34.06597519,32
"18","ADA OH",-83.82268524,40.76944351,6
"19","ADA OK",-96.67899323,34.77481842,32
"20","ADAIRSVILLE GA",-84.93426514,34.36875153,4
"21","ADAMS MA",-73.1167984,42.62440872,6
"22","ADAMSTOWN PA",-76.05577087,40.2414856,1
"23","ADAMSVILLE TN",-88.39057922,35.23587036,2
"24","ADDISON IL",-87.98938751,41.93162155,7
"25","ADDISON NY",-77.23320007,42.1031456,1
"26","ADDISON TX",-96.82976532,32.96215057,161
"27","ADDYSTON OH",-84.70896912,39.13671875,2
"28","ADEL GA",-83.42346191,31.13760948,5
"29","ADEL IA",-94.01776123,41.6144371,1
"30","ADELANTO CA",-117.41043091,34.58280563,4
"31","ADRIAN MI",-84.03691101,41.89771652,18
"32","ADRIAN MO",-94.35219574,38.39756775,7
"33","AHOSKIE NC",-76.98433685,36.28694534,2
"34","AIKEN SC",-81.71619415,33.55714417,49
"35","AIRMONT NY",-74.11543274,41.10093689,5
"36","AKRON NY",-78.49505615,43.02077484,1
"37","AKRON OH",-81.51885223,41.08151627,1251
"38","AKRON PA",-76.20130157,40.15691757,12
"39","ALABASTER AL",-86.81655121,33.24436188,3
"40","ALACHUA FL",-82.49368286,29.79605484,4
"41","ALAMEDA CA",-122.24447632,37.76513672,485
"42","ALAMOGORDO NM",-105.95846558,32.90003967,40
"43","ALAMOSA CO",-105.87244415,37.46229935,22
"44","ALBANY CA",-122.30033112,37.88674164,8
"45","ALBANY GA",-84.15510559,31.58296013,39
"46","ALBANY KY",-85.13433075,36.69089127,1
"47","ALBANY LA",-90.58232117,30.50474739,27
"48","ALBANY NY",-73.75520325,42.6529007,881
"49","ALBANY OR",-123.10839844,44.63620758,43
"50","ALBEMARLE NC",-80.19947815,35.3506012,2
"51","ALBERT LEA MN",-93.36846924,43.6479454,3
"52","ALBERTVILLE AL",-86.20863342,34.26794434,4
"53","ALBERTVILLE MN",-93.65481567,45.23791885,1
"54","ALBIA IA",-92.80632019,41.0268631,1
"55","ALBION ME",-69.44180298,44.53230286,3
"56","ALBION MI",-84.75305176,42.24326324,2
"57","ALBION NY",-78.19290924,43.24666595,2
"58","ALBION PA",-80.3659668,41.88935471,3
"59","ALBUQUERQUE NM",-106.65176392,35.08336639,3062
"60","ALCOA TN",-83.96761322,35.77825165,27
"61","ALEXANDER AR",-92.44168854,34.62968826,1
"62","ALEXANDER CITY AL",-85.95381927,32.94403458,1
"63","ALEXANDRIA IN",-85.67569733,40.2626915,6
"64","ALEXANDRIA LA",-92.44517517,31.31143761,101
"65","ALEXANDRIA MN",-95.37786865,45.88516617,35
"66","ALEXANDRIA VA",-77.04605103,38.80503082,1395
"67","ALFRED NY",-77.78995514,42.25440979,2
"68","ALGOMA WI",-87.43292999,44.60874557,2
"69","ALGONA IA",-94.2338028,43.06998444,2
"70","ALHAMBRA CA",-118.12870026,34.0954628,21
"71","ALICE TX",-98.07035828,27.7528286,23
"72","ALICEVILLE AL",-88.15151978,33.12960434,3
"73","ALIQUIPPA PA",-80.23978424,40.63685608,16
"74","ALLEGAN MI",-85.85546112,42.52919769,5
"75","ALLEN PARK MI",-83.21057892,42.25782394,10
"76","ALLEN TX",-96.67116547,33.10336685,52
"77","ALLENDALE SC",-81.3080368,33.00844955,1
"78","ALLENTOWN PA",-75.46569824,40.60851288,183
"79","ALLIANCE NE",-102.87368774,42.10169601,4
"80","ALLIANCE OH",-81.10575867,40.91523743,3
"81","ALLOUEZ WI",-88.01641846,44.47735977,1
"82","ALMA AR",-94.22241974,35.47818375,4
"83","ALMA GA",-82.46193695,31.53981018,1
"84","ALMA MI",-84.65994263,43.37918854,6
"85","ALMONT MI",-83.04501343,42.9206543,2
"86","ALPENA MI",-83.43292999,45.06164551,22
"87","ALPHARETTA GA",-84.29410553,34.07542419,59
"88","ALPINE TX",-103.66222382,30.35860062,4
"89","ALSIP IL",-87.73867035,41.66915894,3
"90","ALTA IA",-95.3097229,42.67442703,1
"91","ALTAMONTE SPRINGS FL",-81.39485931,28.66284752,38
"92","ALTO TX",-95.07303619,31.65087509,2
"93","ALTON IL",-90.18429565,38.89074326,305
"94","ALTON TX",-98.30632782,26.28513527,4
"95","ALTOONA IA",-93.46868896,41.64997482,6
"96","ALTOONA PA",-78.39411163,40.51860046,63
"97","ALTUS OK",-99.33457184,34.63834,6
"98","ALVA OK",-98.66719055,36.80501556,22
"99","ALVIN TX",-95.24459076,29.42417526,14
"100","AMARILLO TX",-101.83240509,35.22210312,243
"101","AMBLER PA",-75.2210083,40.15485382,6
"102","AMBOY IL",-89.3286972,41.71424103,1
"103","AMELIA OH",-84.21751404,39.0284462,2
"104","AMERICAN FORK UT",-111.80323792,40.34251022,7
"105","AMERICUS GA",-84.23246002,32.07291031,13
"106","AMES IA",-93.61370087,42.02269363,552
"107","AMHERST MA",-72.5192337,42.37371826,124
"108","AMHERST NY",-78.79901886,42.9784317,3
"109","AMHERST OH",-82.22229767,41.39805603,31
"110","AMHERST VA",-79.05090332,37.58533478,3
"111","AMITYVILLE NY",-73.41622162,40.67899323,8
"112","AMMON ID",-111.96840668,43.46959305,2
"113","AMORY MS",-88.48745728,33.98094559,17
"114","AMSTERDAM NY",-74.18743134,42.93893051,3
"115","ANACORTES WA",-122.61488342,48.51247025,23
"116","ANADARKO OK",-98.2443161,35.07276535,4
"117","ANAHEIM CA",-117.91651154,33.8354454,330
"118","ANCHORAGE AK",-149.88119507,61.21649933,742
"119","ANDERSON IN",-85.68051147,40.1053772,189
"120","ANDERSON SC",-82.65641785,34.50934219,73
"121","ANDOVER KS",-97.13726807,37.71379852,11
"122","ANDOVER MA",-71.13011169,42.65668869,25
"123","ANDOVER MN",-93.29158783,45.23327637,8
"124","ANDOVER NH",-71.82262421,43.43712234,1
"125","ANDREWS TX",-102.54620361,32.31894684,1
"126","ANGLETON TX",-95.43254852,29.17015266,1
"127","ANGOLA IN",-84.99913788,41.63493347,1
"128","ANGOLA NY",-79.0273056,42.63856506,4
"129","ANKENY IA",-93.60646057,41.72983551,54
"130","ANN ARBOR MI",-83.74536896,42.28347015,1964
"131","ANNA TX",-96.5491333,33.34925842,1
"132","ANNAPOLIS MD",-76.49166107,38.97844696,351
"133","ANNAWAN IL",-89.90499115,41.39733887,1
"134","ANNISTON AL",-85.8313446,33.65997314,16
"135","ANNVILLE PA",-76.51483917,40.32979584,7
"136","ANOKA MN",-93.3874588,45.19776535,14
"137","ANSONIA CT",-73.0779953,41.34640884,21
"138","ANTIGO WI",-89.15254211,45.14036942,1
"139","ANTIOCH CA",-121.80813599,38.0049057,113
"140","APACHE JUNCTION AZ",-111.55115509,33.41511536,38
"141","APEX NC",-78.84952545,35.73279572,35
"142","APOLLO PA",-79.56620789,40.58155441,5
"143","APOPKA FL",-81.5089798,28.68117523,25
"144","APPLE VALLEY MN",-93.21794128,44.73189926,47
"145","APPLETON WI",-88.41551208,44.2618866,186
"146","APPOMATTOX VA",-78.82469177,37.35719299,2
"147","ARAB AL",-86.49552917,34.31829453,95
"148","ARANSAS PASS TX",-97.150383,27.91025734,2
"149","ARCADIA CA",-118.03688812,34.1397934,48
"150","ARCADIA FL",-81.85810089,27.21654701,6
"151","ARCADIA LA",-92.92064667,32.54955673,2
"152","ARCANUM OH",-84.55335236,39.9899826,4
"153","ARCATA CA",-124.08563995,40.86624527,72
"154","ARCHBOLD OH",-84.30731201,41.52135849,1
"155","ARCHDALE NC",-79.97145844,35.91481018,4
"156","ARCHER FL",-82.51840973,29.53064919,6
"157","ARCOLA IL",-88.3065567,39.68466949,1
"158","ARDEN DE",-75.48575592,39.8094902,1
"159","ARDEN HILLS MN",-93.15720367,45.05033112,10
"160","ARDMORE OK",-97.14401245,34.17425156,34
"161","ARENZVILLE IL",-90.37351227,39.87685394,1
"162","ARGONNE WI",-88.87945557,45.65941238,1
"163","ARGYLE WI",-89.86712646,42.70111084,4
"164","ARKADELPHIA AR",-93.05423737,34.12095642,12
"165","ARKANSAS CITY KS",-97.03897858,37.06211472,12
"166","ARKPORT NY",-77.69580841,42.39464188,1
"167","ARLINGTON HEIGHTS IL",-87.98104858,42.08821106,224
"168","ARLINGTON MA",-71.15559387,42.41545486,88
"169","ARLINGTON NE",-96.35142517,41.45244598,1
"170","ARLINGTON TN",-89.66139984,35.29637527,20
"171","ARLINGTON TX",-97.10882568,32.73590469,1174
"172","ARLINGTON WA",-122.12772369,48.19829941,15
"173","ARNAUDVILLE LA",-91.93197632,30.39797974,2
"174","ARNOLD MO",-90.37690735,38.43906784,38
"175","ARROYO GRANDE CA",-120.59288788,35.11868668,21
"176","ARTESIA CA",-118.08461761,33.86582184,6
"177","ARTESIA NM",-104.40464783,32.84522247,2
"178","ARVADA CO",-105.08866119,39.8028183,30
"179","ARVIN CA",-118.83087921,35.20893478,2
"180","ASBURY PARK NJ",-74.01100159,40.22047806,82
"181","ASH GROVE MO",-93.58557892,37.31526566,3
"182","ASHBURN GA",-83.65306091,31.70657539,5
"183","ASHEBORO NC",-79.81291199,35.70822525,24
"184","ASHEVILLE NC",-82.55367279,35.60134888,1228
"185","ASHLAND AL",-85.83626556,33.27382278,21
"186","ASHLAND IL",-90.00800323,39.88794327,6
"187","ASHLAND KY",-82.63764954,38.47874069,80
"188","ASHLAND MA",-71.46256256,42.26143265,7
"189","ASHLAND MO",-92.25737762,38.77433395,29
"190","ASHLAND OH",-82.31797028,40.86874771,18
"191","ASHLAND OR",-122.71113586,42.19425583,367
"192","ASHLAND VA",-77.47959137,37.75937653,189
"193","ASHLAND WI",-90.88419342,46.59241104,33
"194","ASHLEY IN",-85.06525421,41.52718735,2
"195","ASHTABULA OH",-80.78971863,41.86506653,41
"196","ASHWAUBENON WI",-88.07009888,44.48205185,5
"197","ASKOV MN",-92.78282928,46.18641281,4
"198","ASPEN CO",-106.81859589,39.19105911,92
"199","ASPERMONT TX",-100.22798157,33.13380051,2
"200","ASTORIA OR",-123.83391571,46.18756866,47
"201","ATASCADERO CA",-120.64879608,35.47494888,12
"202","ATCHISON KS",-95.12229919,39.56309128,5
"203","ATHENS AL",-86.97190857,34.80292892,14
"204","ATHENS IL",-89.72410583,39.96085739,11
"205","ATHENS OH",-82.10113525,39.32934952,268
"206","ATHENS PA",-76.52072906,41.9661293,77
"207","ATHENS TN",-84.59921265,35.44878387,2
"208","ATHENS TX",-95.85599518,32.20513916,9
"209","ATHERTON CA",-122.20018005,37.46142578,1
"210","ATHOL MA",-72.22972107,42.59287643,1
"211","ATKINS AR",-92.93680573,35.24659729,1
"212","ATLANTA GA",-84.38757324,33.74927521,30613
"213","ATLANTA IN",-86.02610016,40.21550751,4
"214","ATLANTA LA",-92.73879242,31.8054924,1
"215","ATLANTA TX",-94.16465759,33.11408615,1
"216","ATLANTIC BEACH FL",-81.39808655,30.33498573,26
"217","ATLANTIC CITY NJ",-74.42202759,39.36457062,226
"218","ATLANTIC HIGHLANDS NJ",-74.03326416,40.40827942,2
"219","ATOKA OK",-96.12915039,34.38588333,2
"220","ATOKA TN",-89.77851868,35.44120789,2
"221","ATTALLA AL",-86.08874512,34.02215958,1
"222","ATTICA IN",-87.24867249,40.29444122,3
"223","ATTLEBORO MA",-71.28439331,41.94469833,18
"224","ATWATER CA",-120.61401367,37.34663773,7
"225","AUBREY TX",-96.98683167,33.30471039,2
"226","AUBURN AL",-85.48087311,32.61021423,244
"227","AUBURN CA",-121.07940674,38.89623642,1374
"228","AUBURN GA",-83.82753754,34.01380157,2
"229","AUBURN IL",-89.74681854,39.59179688,5
"230","AUBURN MA",-71.84958649,42.18192291,3
"231","AUBURN ME",-70.23028564,44.09794235,17
"232","AUBURN MI",-84.06974792,43.60359955,3
"233","AUBURN NY",-76.56542969,42.93203735,20
"234","AUBURN WA",-122.23046875,47.30677795,84
"235","AUBURNDALE FL",-81.78826904,28.06580925,1
"236","AUDUBON NJ",-75.07247162,39.89139175,1
"237","AUGUSTA KS",-96.97721863,37.68652725,28
"238","AUGUSTA ME",-69.7781601,44.31053925,19
"239","AURORA CO",-104.8693161,39.73983765,466
"240","AURORA IL",-88.32048798,41.76070023,235
"241","AURORA NC",-76.78784943,35.30578995,2
"242","AURORA NY",-76.70005035,42.75400162,2
"243","AUSTELL GA",-84.63414001,33.81290054,79
"244","AUSTIN IN",-85.80773163,38.75847626,1
"245","AUSTIN MN",-92.97491455,43.6665535,16
"246","AUSTIN TX",-97.74386597,30.26748466,17442
"247","AUSTINTOWN OH",-80.76424408,41.10162354,114
"248","AUXVASSE MO",-91.89766693,39.01833725,1
"249","AVA MO",-92.6605835,36.95189667,4
"250","AVALON CA",-118.32977295,33.34281921,1
"251","AVENAL CA",-120.1306839,36.00422668,1
"252","AVIS PA",-77.31352997,41.1848526,19
"253","AVOCA NY",-77.42100525,42.40945435,3
"254","AVON CO",-106.52374268,39.63142395,4
"255","AVON LAKE OH",-82.02809906,41.50548935,9
"256","AVON OH",-82.0351944,41.45196533,1
"257","AVON PARK FL",-81.50580597,27.59641075,1
"258","AVONDALE AZ",-112.35139465,33.43592072,91
"259","AVONDALE PA",-75.78266907,39.82365036,1
"260","AVONMORE PA",-79.46125031,40.52923965,1
"261","AYER MA",-71.57945251,42.55764771,1
"262","AZLE TX",-97.54621887,32.89556885,43
"263","AZTEC NM",-107.99383545,36.82159805,2
"264","AZUSA CA",-117.90988159,34.13357544,40
"265","BABYLON NY",-73.3247757,40.696064,2
"266","BAINBRIDGE GA",-84.57505798,30.90430069,4
"267","BAKER LA",-91.16854858,30.58853531,1
"268","BAKERSFIELD CA",-119.02063751,35.37326813,554
"269","BAKERSVILLE NC",-82.15859985,36.01586914,2
"270","BALCH SPRINGS TX",-96.62306213,32.72889328,2
"271","BALDWIN CITY KS",-95.18656921,38.77522659,25
"272","BALDWIN IL",-89.84280396,38.1832962,2
"273","BALDWIN NY",-73.60838318,40.65660858,4
"274","BALDWIN PARK CA",-117.96247864,34.08519363,14
"275","BALDWINSVILLE NY",-76.33219147,43.15886307,5
"276","BALDWYN MS",-88.63553619,34.5099411,24
"277","BALLSTON SPA NY",-73.84790039,43.00103378,38
"278","BALLWIN MO",-90.54669189,38.5951004,291
"279","BALLY PA",-75.58628845,40.40263367,1
"280","BALTIMORE MD",-76.6115799,39.29075623,9323
"281","BAMBERG SC",-81.03459167,33.2973938,1
"282","BANDERA TX",-99.07427216,29.72691536,2
"283","BANDON OR",-124.41056061,43.11890793,7
"284","BANGOR ME",-68.77653503,44.80109406,172
"285","BANGOR PA",-75.20609283,40.86587524,8
"286","BANKS OR",-123.11686707,45.61822128,1
"287","BANNING CA",-116.87874603,33.92569351,14
"288","BAR HARBOR ME",-68.20309448,44.38752747,54
"289","BARABOO WI",-89.74446869,43.47089767,21
"290","BARBERTON OH",-81.60507965,41.0127182,2
"291","BARBOURVILLE KY",-83.88861084,36.86665726,8
"292","BARGERSVILLE IN",-86.16780853,39.52098083,3
"293","BARLOW KY",-89.04716492,37.05197525,1
"294","BARNESVILLE GA",-84.15583038,33.05487442,7
"295","BARNWELL SC",-81.35834503,33.24495316,2
"296","BARRE MA",-72.09545898,42.40907288,1
"297","BARRE VT",-72.50119781,44.19706345,4
"298","BARRINGTON IL",-88.13623047,42.15398788,2
"299","BARROW AK",-156.7964325,71.29006195,2
"300","BARSTOW CA",-117.02451324,34.89870071,4
"301","BARTLESVILLE OK",-95.98135376,36.74737549,7
"302","BARTLETT IL",-88.18564606,41.9950676,20
"303","BARTLETT KS",-95.21155548,37.05488205,1
"304","BARTLETT TN",-89.87441254,35.20460892,27
"305","BARTONVILLE IL",-89.65235138,40.6502037,288
"306","BARTOW FL",-81.84252167,27.89712715,3
"307","BASALT CO",-107.03366852,39.36895752,2
"308","BASSFIELD MS",-89.73988342,31.49684715,2
"309","BASTROP LA",-91.91439819,32.77897644,6
"310","BASTROP TX",-97.31572723,30.11092758,33
"311","BATAVIA IA",-92.16798401,40.99414825,3
"312","BATAVIA NY",-78.18697357,42.99835587,27
"313","BATAVIA OH",-84.17655182,39.07704926,4
"314","BATESVILLE AR",-91.64100647,35.76984024,4
"315","BATESVILLE IN",-85.22227478,39.3000145,1
"316","BATESVILLE MS",-89.94464874,34.31167603,54
"317","BATH ME",-69.81929779,43.9107132,2
"318","BATON ROUGE LA",-91.15479279,30.45132256,1650
"319","BATTLE CREEK MI",-85.17985535,42.32100677,30
"320","BATTLE GROUND WA",-122.53560638,45.78078842,12
"321","BATTLE LAKE MN",-95.71406555,46.28032303,1
"322","BAXLEY GA",-82.34827423,31.77871323,2
"323","BAXTER SPRINGS KS",-94.73813629,37.02472305,20
"324","BAY CITY MI",-83.8886261,43.59466171,56
"325","BAY CITY TX",-95.9697113,28.98308754,2
"326","BAY HARBOR ISLANDS FL",-80.13056946,25.88832092,1
"327","BAY LAKE FL",-81.92185974,28.45840073,28
"328","BAY SPRINGS MS",-89.28733826,31.97930336,3
"329","BAY VILLAGE OH",-81.92155457,41.48464966,49
"330","BAYFIELD WI",-90.81848145,46.81044769,1
"331","BAYONNE NJ",-74.10975647,40.66794968,38
"332","BAYTOWN TX",-94.97782135,29.73608589,170
"333","BEACON NY",-73.9688797,41.50502014,88
"334","BEAR LAKE MI",-86.14846802,44.42086029,6
"335","BEARDSLEY MN",-96.71322632,45.55812454,1
"336","BEATRICE NE",-96.74773407,40.26797104,1
"337","BEAUFORT NC",-76.66288757,34.71848679,21
"338","BEAUFORT SC",-80.68718719,32.44019699,37
"339","BEAUMONT CA",-116.97831726,33.9292717,8
"340","BEAUMONT TX",-94.10238647,30.08622551,191
"341","BEAVER DAM KY",-86.87591553,37.40219879,2
"342","BEAVER DAM WI",-88.83752441,43.45764542,3
"343","BEAVER FALLS PA",-80.3188858,40.75218582,5
"344","BEAVER PA",-80.30450439,40.69532776,17
"345","BEAVER UT",-112.64833069,38.27668381,6
"346","BEAVERCREEK OH",-84.06332397,39.70913696,63
"347","BEAVERTON OR",-122.80553436,45.48670197,397
"348","BECKLEY WV",-81.18963623,37.77680588,12
"349","BEDFORD IN",-86.48697662,38.86146164,13
"350","BEDFORD MA",-71.27526855,42.49069214,7
"351","BEDFORD NY",-73.64318085,41.204319,34
"352","BEDFORD OH",-81.53594208,41.39339828,11
"353","BEDFORD PA",-78.50319672,40.01898575,16
"354","BEDFORD TX",-97.14364624,32.8442955,39
"355","BEDFORD VA",-79.52242279,37.33457184,7
"356","BEDMINSTER NJ",-74.64486694,40.68070602,4
"357","BEE CAVE TX",-97.94541931,30.30895233,1
"358","BEEBE AR",-91.87966156,35.07094574,4
"359","BEECH GROVE IN",-86.08973694,39.72201157,11
"360","BEECHER CITY IL",-88.78668976,39.18835068,3
"361","BEEVILLE TX",-97.7488327,28.40157127,7
"362","BEL AIR MD",-76.34788513,39.53611374,42
"363","BELCHERTOWN MA",-72.40000153,42.27737427,1
"364","BELDING MI",-85.22901917,43.09791946,3
"365","BELEN NM",-106.77502441,34.65850067,8
"366","BELL CA",-118.18895721,33.97753906,38
"367","BELL GARDENS CA",-118.15369415,33.96530914,2
"368","BELLAIRE MI",-85.21157837,44.98040009,1
"369","BELLAIRE OH",-80.74460602,40.02676773,1
"370","BELLAIRE TX",-95.4592514,29.70632935,4
"371","BELLE GLADE FL",-80.66747284,26.68785477,9
"372","BELLE MO",-91.72072601,38.28581619,1
"373","BELLEAIR BEACH FL",-82.84260559,27.9237709,4
"374","BELLEFONTAINE OH",-83.75959015,40.36141205,5
"375","BELLEFONTE PA",-77.77765656,40.91333389,27
"376","BELLEVIEW FL",-82.06185913,29.05568314,9
"377","BELLEVILLE IL",-89.98438263,38.52002716,661
"378","BELLEVILLE MI",-83.48514557,42.20495987,17
"379","BELLEVILLE NJ",-74.14912415,40.79369736,5
"380","BELLEVUE IA",-90.42323303,42.25885773,1
"381","BELLEVUE KY",-84.47879791,39.10644531,9
"382","BELLEVUE NE",-95.89156342,41.13648224,35
"383","BELLEVUE OH",-82.84135437,41.27357483,2
"384","BELLEVUE PA",-80.05105591,40.49424362,6
"385","BELLEVUE WA",-122.20296478,47.61014557,281
"386","BELLFLOWER CA",-118.11862946,33.88169479,40
"387","BELLINGHAM WA",-122.47274017,48.76121521,566
"388","BELLMAWR NJ",-75.09385681,39.86771774,39
"389","BELLPORT NY",-72.93808746,40.75737,24
"390","BELLVILLE TX",-96.25782776,29.95071411,2
"391","BELLWOOD IL",-87.88317108,41.88128662,1
"392","BELMAR NJ",-74.02155304,40.17336273,5
"393","BELMONT CA",-122.27835083,37.51996613,78
"394","BELMONT MA",-71.1774292,42.39597321,4
"395","BELMONT MS",-88.20941162,34.51007462,5
"396","BELMONT NC",-81.0369873,35.24316406,15
"397","BELOIT WI",-89.03194427,42.50856781,14
"398","BELTON MO",-94.53222656,38.81176376,20
"399","BELTON TX",-97.46511841,31.05611229,47
"400","BELVIDERE IL",-88.84451294,42.26396942,8
"401","BEMENT IL",-88.57191467,39.92221832,1
"402","BEMIDJI MN",-94.88105774,47.47352982,52
"403","BENBROOK TX",-97.46098328,32.67370987,6
"404","BEND OR",-121.31713867,44.0577774,475
"405","BENICIA CA",-122.16030121,38.04900742,41
"406","BENLD IL",-89.80440521,39.09303665,1
"407","BENNETT CO",-104.42858887,39.75864792,4
"408","BENNETTSVILLE SC",-79.68428802,34.61242676,1
"409","BENNINGTON VT",-73.19591522,42.87845612,2
"410","BENSENVILLE IL",-87.94012451,41.95510483,19
"411","BENSON NC",-78.54795074,35.38231659,3
"412","BENTON AR",-92.58699036,34.56454468,5
"413","BENTON HARBOR MI",-86.45429993,42.11692429,28
"414","BENTON KY",-88.35020447,36.85724258,1
"415","BENTON LA",-93.74242401,32.69527817,3
"416","BENTONVILLE AR",-94.20933533,36.3728447,106
"417","BEREA KY",-84.29612732,37.5687027,10
"418","BEREA OH",-81.85396576,41.36633301,41
"419","BERGENFIELD NJ",-73.99640656,40.92791748,8
"420","BERKELEY CA",-122.2752533,37.87145615,2833
"421","BERKELEY HEIGHTS NJ",-74.44181824,40.68349838,8
"422","BERKELEY MO",-90.33169556,38.75470734,28
"423","BERKLEY MI",-83.18341827,42.50307083,17
"424","BERLIN MD",-75.21686554,38.32276917,3
"425","BERLIN NJ",-74.9280014,39.79132462,2
"426","BERNALILLO NM",-106.55163574,35.30175781,8
"427","BERRIEN SPRINGS MI",-86.33900452,41.94654846,50
"428","BERRYVILLE VA",-77.9814682,39.15181732,3
"429","BERTHOUD CO",-105.08589172,40.30111313,2
"430","BERWICK LA",-91.22148895,29.69494629,1
"431","BERWICK ME",-70.86322784,43.26593399,1
"432","BERWICK PA",-76.23230743,41.05486679,15
"433","BERWYN IL",-87.79390717,41.85061646,24
"434","BESSEMER AL",-86.95465851,33.40222549,37
"435","BESSEMER CITY NC",-81.28375244,35.28520966,4
"436","BETHALTO IL",-90.04077911,38.90911865,13
"437","BETHEL OH",-84.08042908,38.96363068,1
"438","BETHEL PARK PA",-80.01592255,40.33843613,13
"439","BETHLEHEM PA",-75.36949921,40.62598801,204
"440","BETTENDORF IA",-90.51612854,41.52465439,31
"441","BEVERLY HILLS CA",-118.40197754,34.07383347,474
"442","BEVERLY HILLS MI",-83.22288513,42.52407837,3
"443","BEVERLY MA",-70.87913513,42.55848312,22
"444","BEXLEY OH",-82.93772888,39.96929932,9
"445","BICKNELL IN",-87.30805969,38.77451324,1
"446","BIDDEFORD ME",-70.45225525,43.49275208,4
"447","BIG BEAR LAKE CA",-116.91362,34.24382782,2
"448","BIG LAKE MN",-93.7464447,45.33234787,1
"449","BIG RAPIDS MI",-85.48376465,43.69808578,20
"450","BIG SANDY MT",-110.11911774,48.17901993,3
"451","BIG SANDY TX",-95.10948181,32.58401871,9
"452","BIG SPRING TX",-101.48111725,32.25181198,41
"453","BIG STONE GAP VA",-82.74668884,36.88179398,13
"454","BIGFORK MN",-93.65458679,47.74435425,3
"455","BIGGS CA",-121.71543884,39.41196823,2
"456","BILLERICA MA",-71.26820374,42.55883408,4
"457","BILLINGS MT",-108.50463104,45.7833786,82
"458","BILOXI MS",-88.89369202,30.40021133,83
"459","BINGHAMTON NY",-75.91755676,42.0986557,241
"460","BIRDSBORO PA",-75.80335236,40.26465225,17
"461","BIRMINGHAM AL",-86.80226898,33.52098846,2747
"462","BIRMINGHAM MI",-83.21121216,42.54697418,109
"463","BISBEE AZ",-109.92984772,31.44821548,272
"464","BISCAYNE PARK FL",-80.18003845,25.88322449,1
"465","BISHOP CA",-118.39687347,37.36342239,1
"466","BISHOPVILLE SC",-80.24495697,34.21529007,4
"467","BISMARCK ND",-100.77896118,46.80673981,48
"468","BIXBY OK",-95.88382721,35.94215775,76
"469","BLACK JACK MO",-90.26735687,38.79346085,3
"470","BLACK MOUNTAIN NC",-82.32103729,35.61796188,54
"471","BLACKFOOT ID",-112.34630585,43.1905098,23
"472","BLACKSBURG SC",-81.51545715,35.12131882,1
"473","BLACKSBURG VA",-80.41369629,37.22999573,394
"474","BLACKSTONE VA",-77.99647522,37.08090591,7
"475","BLACKVILLE SC",-81.27037048,33.35803604,4
"476","BLADENSBURG MD",-76.9335556,38.93954849,12
"477","BLAINE MN",-93.23551178,45.171978,7
"478","BLAINE WA",-122.75008392,48.99335098,5
"479","BLAIR NE",-96.12560272,41.544384,4
"480","BLAIRSVILLE GA",-83.95786285,34.87645721,1
"481","BLANCHESTER OH",-83.98893738,39.29340363,1
"482","BLAND MO",-91.63315582,38.30200195,5
"483","BLANKET TX",-98.78768921,31.82418633,1
"484","BLISSFIELD MI",-83.86232758,41.83250046,1
"485","BLOOMFIELD HILLS MI",-83.24560547,42.58376312,17
"486","BLOOMFIELD NJ",-74.18488312,40.8069458,13
"487","BLOOMINGBURG OH",-83.39527893,39.60507202,2
"488","BLOOMINGDALE IL",-88.08078766,41.95762634,3
"489","BLOOMINGDALE NJ",-74.32588959,41.002285,1
"490","BLOOMINGTON IL",-88.99375916,40.48418045,112
"491","BLOOMINGTON IN",-86.53382874,39.16920471,754
"492","BLOOMINGTON MN",-93.29154205,44.82648849,47
"493","BLOOMSBURG PA",-76.45426178,41.00380325,13
"494","BLOOMSDALE MO",-90.21808624,38.00960922,1
"495","BLOSSBURG PA",-77.06325531,41.67986679,2
"496","BLOWING ROCK NC",-81.67708588,36.13526535,1
"497","BLUE ASH OH",-84.37797546,39.23192215,1
"498","BLUE EARTH MN",-94.1026535,43.63752365,6
"499","BLUE HILL ME",-68.588974,44.43393707,1
"500","BLUE HILL NE",-98.4491806,40.3325882,3
"501","BLUE ISLAND IL",-87.67993927,41.657444,12
"502","BLUE RIDGE GA",-84.32199097,34.86791229,3
"503","BLUE RIDGE TX",-96.40189362,33.2983017,1
"504","BLUE SPRINGS MO",-94.2820816,39.01689148,79
"505","BLUEFIELD VA",-81.27105713,37.25265121,2
"506","BLUEFIELD WV",-81.21854401,37.27106094,4
"507","BLUFF CITY TN",-82.26051331,36.47451019,22
"508","BLUFFTON GA",-84.86750031,31.5231266,9
"509","BLUFFTON IN",-85.17154694,40.73873138,4
"510","BLUFFTON OH",-83.88886261,40.89531326,1
"511","BLUFFTON SC",-80.86026001,32.23733902,12
"512","BLYTHEVILLE AR",-89.91928101,35.92730713,4
"513","BLYTHEWOOD SC",-80.97387695,34.21453476,5
"514","BOARDMAN OH",-80.66256714,41.02441788,20
"515","BOAZ AL",-86.16611481,34.20103073,4
"516","BOCA RATON FL",-80.08280182,26.35960197,332
"517","BOERNE TX",-98.73278046,29.79491997,2
"518","BOGALUSA LA",-89.84885406,30.79155159,1
"519","BOILING SPRINGS NC",-81.66678619,35.25450516,15
"520","BOLINGBROOK IL",-88.06878662,41.69866562,254
"521","BOLIVAR MO",-93.41101074,37.61450195,4
"522","BOMBAY NY",-74.5668869,44.93919373,1
"523","BONHAM TX",-96.17896271,33.57743454,11
"524","BONIFAY FL",-85.67938995,30.79223824,4
"525","BONITA SPRINGS FL",-81.77822876,26.34039497,22
"526","BONNE TERRE MO",-90.55574036,37.92339325,5
"527","BONNER SPRINGS KS",-94.88421631,39.05975342,2
"528","BONNERS FERRY ID",-116.3183136,48.69117737,1
"529","BONNEY LAKE WA",-122.18836975,47.17679596,32
"530","BOOKER TX",-100.53839111,36.4532814,2
"531","BOONE CO",-104.25753784,38.24863815,3
"532","BOONE IA",-93.88450623,42.06530762,8
"533","BOONE NC",-81.67436218,36.21696472,120
"534","BOONES MILL VA",-79.9546051,37.11700821,14
"535","BOONEVILLE AR",-93.92186737,35.14023209,1
"536","BOONTON NJ",-74.4063797,40.90301514,8
"537","BOONVILLE MO",-92.74378967,38.97373962,8
"538","BOONVILLE NC",-80.70774841,36.23297882,2
"539","BOOTHBAY HARBOR ME",-69.62703705,43.85256958,2
"540","BORDENTOWN NJ",-74.7159729,40.15003586,43
"541","BOSCAWEN NH",-71.62001801,43.31507111,1
"542","BOSCOBEL WI",-90.70555115,43.13436127,2
"543","BOSSIER CITY LA",-93.73249817,32.51643753,55
"544","BOSTON MA",-71.05905151,42.35883713,15281
"545","BOTHELL WA",-122.20754242,47.75966263,101
"546","BOULDER CO",-105.27153015,40.01483917,1366
"547","BOUND BROOK NJ",-74.53753662,40.5687561,8
"548","BOUNTIFUL UT",-111.88256836,40.88913345,13
"549","BOWBELLS ND",-102.24656677,48.80357361,1
"550","BOWIE MD",-76.77848816,39.00718689,447
"551","BOWLING GREEN KY",-86.4437027,36.99057388,218
"552","BOWLING GREEN OH",-83.65102386,41.37505341,129
"553","BOWMAN SC",-80.68243408,33.34929657,5
"554","BOXFORD MA",-70.99541473,42.66123581,11
"555","BOYD TX",-97.56573486,33.0790329,1
"556","BOYERTOWN PA",-75.63640594,40.33397675,2
"557","BOYNTON BEACH FL",-80.066185,26.52592087,112
"558","BOYS TOWN NE",-96.13262177,41.26118088,8
"559","BOZEMAN MT",-111.04716492,45.6803093,236
"560","BRADDOCK PA",-79.86782837,40.4034462,3
"561","BRADENTON FL",-82.57459259,27.49969101,109
"562","BRADFORD PA",-78.64337921,41.95611572,4
"563","BRADLEY BEACH NJ",-74.01112366,40.20234299,1
"564","BRADLEY IL",-87.86099243,41.14196014,12
"565","BRAINERD MN",-94.20135498,46.35787582,4
"566","BRANCHVILLE SC",-80.81507111,33.25175858,3
"567","BRANDON MS",-89.98616028,32.27327728,62
"568","BRANDON SD",-96.58744049,43.58988571,5
"569","BRANFORD FL",-82.92802429,29.95959473,2
"570","BRANSON MO",-93.21912384,36.64381409,47
"571","BRANTLEY AL",-86.25697327,31.5824852,3
"572","BRATTLEBORO VT",-72.55673981,42.85120392,6
"573","BRAWLEY CA",-115.53121185,32.97854614,4
"574","BRAZIL IN",-87.12501526,39.52391434,2
"575","BRAZORIA TX",-95.56978607,29.04499435,10
"576","BREA CA",-117.90157318,33.91663361,15
"577","BREAUX BRIDGE LA",-91.89958954,30.27367973,4
"578","BRECKENRIDGE CO",-106.03986359,39.48156357,9
"579","BRECKSVILLE OH",-81.62625122,41.32006836,8
"580","BREESE IL",-89.52734375,38.61071396,10
"581","BREMEN GA",-85.1452179,33.72130585,3
"582","BREMEN IN",-86.14834595,41.44665146,1
"583","BREMERTON WA",-122.63452911,47.56690598,73
"584","BRENHAM TX",-96.39807129,30.16748047,9
"585","BRENT AL",-87.16462708,32.9375,1
"586","BRENTWOOD CA",-121.69843292,37.93167496,40
"587","BRENTWOOD MO",-90.34931183,38.61766052,7
"588","BRENTWOOD PA",-79.97418213,40.37056351,1
"589","BRENTWOOD TN",-86.78275299,36.03345108,24
"590","BREVARD NC",-82.73400116,35.23363113,72
"591","BREWER ME",-68.75276184,44.79284286,4
"592","BREWSTER OH",-81.5980072,40.70691681,15
"593","BREWSTER WA",-119.78278351,48.09584427,6
"594","BREWTON AL",-87.07205963,31.10564423,81
"595","BRIARCLIFF MANOR NY",-73.82289886,41.14598846,2
"596","BRIDGE CITY TX",-93.84603882,30.02119064,1
"597","BRIDGEPORT CT",-73.2040863,41.16743088,162
"598","BRIDGEPORT TX",-97.75536346,33.21035767,7
"599","BRIDGETON MO",-90.41161346,38.76696396,12
"600","BRIDGETON NJ",-75.23321533,39.42769623,37
"601","BRIDGEVILLE PA",-80.1095047,40.35649872,2
"602","BRIDGEWATER MA",-70.97428894,41.99058914,2
"603","BRIGHAM CITY UT",-112.0170517,41.50990677,4
"604","BRIGHTON CO",-104.81752777,39.97783661,7
"605","BRIGHTON IL",-90.14067841,39.03963089,22
"606","BRIGHTON MI",-83.78043365,42.52965546,12
"607","BRIGHTON NY",-77.57167816,43.12691116,6
"608","BRIGHTON TN",-89.72525787,35.48423386,1
"609","BRINKLEY AR",-91.19507599,34.8880043,1
"610","BRINSON GA",-84.73757935,30.9772625,1
"611","BRISBANE CA",-122.40250397,37.68077469,5
"612","BRISTOL CT",-72.94853973,41.67193222,188
"613","BRISTOL PA",-74.85106659,40.10090637,5
"614","BRISTOL RI",-71.26984406,41.67538452,11
"615","BRISTOL TN",-82.17338562,36.58886719,158
"616","BRISTOL VA",-82.18840027,36.59663391,22
"617","BRISTOL VT",-73.07827759,44.133358,1
"618","BRISTOW OK",-96.39189148,35.83086395,1
"619","BROADVIEW HEIGHTS OH",-81.68503571,41.31410217,27
"620","BROADVIEW IL",-87.85337067,41.86410522,11
"621","BROADWAY VA",-78.7984314,38.61343002,2
"622","BROCK NE",-95.9602356,40.47987747,6
"623","BROCKPORT NY",-77.93889618,43.213871,60
"624","BROCKTON MA",-71.01748657,42.08340454,86
"625","BRODHEAD WI",-89.37636566,42.61840057,1
"626","BROKEN ARROW OK",-95.79160309,36.05273056,117
"627","BRONSON MI",-85.19442749,41.87239456,1
"628","BRONXVILLE NY",-73.83145905,40.93828583,16
"629","BROOK PARK OH",-81.80407715,41.39829636,1
"630","BROOKFIELD IL",-87.85184479,41.82412338,66
"631","BROOKFIELD WI",-88.10640717,43.06070328,12
"632","BROOKHAVEN MS",-90.44090271,31.57933807,3
"633","BROOKHAVEN PA",-75.38172913,39.8696785,2
"634","BROOKINGS OR",-124.28652191,42.05229187,30
"635","BROOKINGS SD",-96.79450989,44.3097229,35
"636","BROOKLINE MA",-71.12002563,42.33176804,54
"637","BROOKLYN CENTER MN",-93.28692627,45.07069016,2
"638","BROOKLYN MI",-84.24793243,42.10597992,1
"639","BROOKLYN OH",-81.73506165,41.43965912,2
"640","BROOKLYN PARK MN",-93.35662079,45.09407043,43
"641","BROOKNEAL VA",-78.94335937,37.05040741,4
"642","BROOKSIDE VILLAGE TX",-95.32555389,29.58737183,17
"643","BROOKSVILLE FL",-82.38734436,28.55600739,31
"644","BROOMFIELD CO",-105.08776855,39.92069244,109
"645","BROUSSARD LA",-91.96131134,30.14761353,3
"646","BROWN DEER WI",-87.96490479,43.16327667,8
"647","BROWNFIELD TX",-102.27519226,33.18150711,9
"648","BROWNSTOWN IN",-86.04185486,38.87921143,5
"649","BROWNSVILLE OR",-122.98773956,44.39308929,4
"650","BROWNSVILLE PA",-79.88352966,40.02396393,5
"651","BROWNSVILLE TN",-89.27153778,35.59300232,3
"652","BROWNSVILLE TX",-97.4977951,25.90228081,63
"653","BROWNWOOD TX",-98.99180603,31.70943642,4
"654","BRUNSWICK GA",-81.49102783,31.1502285,33
"655","BRUNSWICK ME",-69.96412659,43.91474533,15
"656","BRUNSWICK OH",-81.84169769,41.23830795,44
"657","BRUSH CO",-103.62449646,40.25937271,2
"658","BRYAN OH",-84.54946899,41.47367859,4
"659","BRYAN TX",-96.3704071,30.67456818,83
"660","BRYANT AR",-92.48953247,34.59588242,21
"661","BUCHANAN GA",-85.18835449,33.80280685,1
"662","BUCHANAN MI",-86.3614502,41.82715225,13
"663","BUCKEYE AZ",-112.58526611,33.37036896,37
"664","BUCKHANNON WV",-80.22968292,38.99204254,21
"665","BUCKINGHAM PA",-75.05937195,40.32373428,1
"666","BUCKLEY WA",-122.02932739,47.16257095,3
"667","BUCYRUS OH",-82.97511292,40.80856323,6
"668","BUDA TX",-97.84067535,30.08543968,25
"669","BUENA PARK CA",-117.99993896,33.86748123,26
"670","BUENA VISTA CO",-106.13345337,38.84151459,31
"671","BUENA VISTA GA",-84.51670074,32.31921768,1
"672","BUFFALO GAP TX",-99.82436371,32.2901001,3
"673","BUFFALO GROVE IL",-87.95986176,42.15155411,1
"674","BUFFALO MN",-93.87721252,45.17856216,4
"675","BUFFALO NY",-78.87787628,42.8867836,2941
"676","BUFFALO WY",-106.69965363,44.3480072,1
"677","BUFORD GA",-84.00788879,34.11735535,23
"678","BUHLER KS",-97.7707901,38.13441849,2
"679","BULLHEAD CITY AZ",-114.56956482,35.1478157,9
"680","BUNCETON MO",-92.79986572,38.78822708,1
"681","BUNKER HILL IL",-89.95170593,39.04272842,3
"682","BUNKIE LA",-92.18289185,30.95348549,2
"683","BURBANK CA",-118.31047821,34.18065262,438
"684","BURGAW NC",-77.92559814,34.55234146,1
"685","BURGETTSTOWN PA",-80.39241791,40.38209915,1
"686","BURIEN WA",-122.35001373,47.47027206,16
"687","BURLESON TX",-97.32151794,32.54247665,8
"688","BURLINGAME CA",-122.36850739,37.58408737,23
"689","BURLINGTON CO",-102.26935577,39.30016708,1
"690","BURLINGTON IA",-91.11296082,40.80773544,8
"691","BURLINGTON MA",-71.19434357,42.50506973,11
"692","BURLINGTON NC",-79.43729401,36.09585953,12
"693","BURLINGTON NJ",-74.86417389,40.07125092,26
"694","BURLINGTON VT",-73.20542908,44.47687531,673
"695","BURLINGTON WA",-122.32794952,48.47541428,2
"696","BURLINGTON WI",-88.27623749,42.67818832,5
"697","BURNET TX",-98.22889709,30.75881004,4
"698","BURNHAM IL",-87.55692291,41.63884354,1
"699","BURNS OR",-119.05622101,43.58610153,2
"700","BURNS TN",-87.3127594,36.05329132,1
"701","BURNSVILLE MN",-93.27822113,44.76760483,31
"702","BURNSVILLE NC",-82.30067444,35.91744614,23
"703","BURTON MI",-83.59590912,43.02775955,8
"704","BUSHNELL FL",-82.11235809,28.66544533,4
"705","BUSHNELL IL",-90.50644684,40.55287933,1
"706","BUTLER IN",-84.8711853,41.42999649,1
"707","BUTLER PA",-79.89468384,40.86117172,42
"708","BYESVILLE OH",-81.53645325,39.97002411,1
"709","BYRAM MS",-90.25419617,32.18321609,5
"710","BYRON GA",-83.75946808,32.65393066,1
"711","BYRON WY",-108.50821686,44.79620361,20
"712","CABLE WI",-91.2926712,46.20778275,1
"713","CABOT AR",-92.01670837,34.9747467,4
"714","CACHE OK",-98.62905884,34.62960434,2
"715","CADDO MILLS TX",-96.22838593,33.0659256,1
"716","CADILLAC MI",-85.401474,44.25179291,3
"717","CADIZ KY",-87.83547211,36.86511612,1
"718","CAHOKIA IL",-90.19016266,38.57118225,30
"719","CAIRO GA",-84.20102692,30.87791824,91
"720","CAIRO IL",-89.1803894,37.00523758,1
"721","CALABASAS CA",-118.64732361,34.1558876,68
"722","CALDWELL ID",-116.6891098,43.66285324,11
"723","CALDWELL KS",-97.60746002,37.03227997,1
"724","CALDWELL NJ",-74.27587128,40.83979797,4
"725","CALDWELL OH",-81.51609039,39.7481575,4
"726","CALDWELL TX",-96.69367218,30.53148842,3
"727","CALEDONIA MI",-85.51702118,42.78935623,8
"728","CALEDONIA NY",-77.85209656,42.97341919,3
"729","CALEDONIA WI",-87.92467499,42.80763245,1
"730","CALERA AL",-86.75354004,33.10300064,80
"731","CALEXICO CA",-115.50041199,32.67900085,1
"732","CALHOUN GA",-84.95102692,34.50297165,10
"733","CALIFORNIA MO",-92.56713104,38.62768555,9
"734","CALIFORNIA PA",-79.89154053,40.06599426,21
"735","CALIMESA CA",-117.06346893,34.00385666,10
"736","CALLAHAN FL",-81.83045959,30.56256294,13
"737","CALUMET CITY IL",-87.5293045,41.61571884,9
"738","CALUMET MI",-88.45446777,47.24640274,6
"739","CAMARILLO CA",-119.04003906,34.21628952,353
"740","CAMAS WA",-122.40544891,45.58965683,19
"741","CAMBRIDGE MA",-71.10369873,42.36532593,1705
"742","CAMBRIDGE MD",-76.07826996,38.56329346,2
"743","CAMBRIDGE MN",-93.22480774,45.5726738,1
"744","CAMBRIDGE OH",-81.58615875,40.02525711,155
"745","CAMBRIDGE SPRINGS PA",-80.05628204,41.80366135,5
"746","CAMBRIDGE WI",-89.01670074,43.00352097,2
"747","CAMDEN AR",-92.83481598,33.58491898,21
"748","CAMDEN ME",-69.06347656,44.20983505,1
"749","CAMDEN NJ",-75.118927,39.92608261,222
"750","CAMDEN SC",-80.60647583,34.24704742,7
"751","CAMDEN TN",-88.09780121,36.05930328,5
"752","CAMDENTON MO",-92.74469757,38.00836182,7
"753","CAMERON NC",-79.25471497,35.32713318,1
"754","CAMERON SC",-80.71407318,33.5581665,14
"755","CAMILLA GA",-84.21003723,31.23182297,2
"756","CAMP HILL PA",-76.9335022,40.24120331,10
"757","CAMPBELL CA",-121.95197296,37.287117,63
"758","CAMPBELL MO",-90.07504272,36.49356079,4
"759","CAMPBELLSVILLE KY",-85.34185791,37.34331131,7
"760","CANAL FULTON OH",-81.59751129,40.88972473,1
"761","CANAL WINCHESTER OH",-82.80456543,39.84274673,13
"762","CANANDAIGUA NY",-77.28107452,42.88830948,50
"763","CANASTOTA NY",-75.75039673,43.07939529,5
"764","CANBY OR",-122.69481659,45.26276779,5
"765","CANEY KS",-95.93595123,37.01166534,1
"766","CANNON FALLS MN",-92.90566254,44.50691605,6
"767","CANONSBURG PA",-80.1868515,40.26278687,5
"768","CANTON GA",-84.48571014,34.23356628,30
"769","CANTON IL",-90.03516388,40.55800247,13
"770","CANTON MA",-71.14385986,42.15875626,2
"771","CANTON MS",-90.03672028,32.61313248,9
"772","CANTON NC",-82.83691406,35.53314209,8
"773","CANTON NY",-75.16870117,44.59575272,32
"774","CANTON OH",-81.37824249,40.79906845,244
"775","CANTON TX",-95.86379242,32.55702591,5
"776","CANYON TX",-101.91924286,34.98051834,12
"777","CAPE CANAVERAL FL",-80.60503387,28.4044838,18
"778","CAPE CORAL FL",-81.9491806,26.56343079,78
"779","CAPE ELIZABETH ME",-70.20044708,43.56402206,3
"780","CAPE GIRARDEAU MO",-89.51838684,37.30613327,439
"781","CAPE MAY NJ",-74.90522766,38.93513107,23
"782","CAPITAN NM",-105.57672882,33.58862686,2
"783","CAPITOL HEIGHTS MD",-76.91506195,38.88552475,79
"784","CARBONDALE CO",-107.21278381,39.4022522,3
"785","CARBONDALE IL",-89.2168808,37.7274704,254
"786","CARBONDALE KS",-95.68982697,38.81850815,2
"787","CARBONDALE PA",-75.50098419,41.57386398,1
"788","CARDINGTON OH",-82.89324188,40.5008812,3
"789","CARENCRO LA",-92.04903412,30.31741714,14
"790","CARL JUNCTION MO",-94.56625366,37.17694855,1
"791","CARLISLE IA",-93.48899078,41.50154495,6
"792","CARLISLE KY",-84.02700806,38.31232452,1
"793","CARLISLE MA",-71.34856415,42.52941132,1
"794","CARLISLE PA",-77.18848419,40.20173264,102
"795","CARLSBAD CA",-117.35281372,33.1580162,130
"796","CARLSBAD NM",-104.23506165,32.41680527,11
"797","CARLTON MN",-92.42503357,46.66386795,1
"798","CARLYLE IL",-89.37243652,38.61019897,2
"799","CARMEL IN",-86.12607574,39.97961426,44
"800","CARMEL NY",-73.67949677,41.43042755,7
"801","CARNEGIE PA",-80.0830307,40.40876007,1
"802","CARNEYS POINT NJ",-75.46931458,39.71123123,4
"803","CARO MI",-83.39698792,43.49111176,6
"804","CAROL STREAM IL",-88.13473511,41.91279221,10
"805","CAROLINA BEACH NC",-77.89279175,34.03543472,3
"806","CARPENTERSVILLE IL",-88.25814056,42.12114716,1
"807","CARPINTERIA CA",-119.52012634,34.39894485,23
"808","CARRBORO NC",-79.07286835,35.91213989,156
"809","CARRIER MILLS IL",-88.63308716,37.68437576,3
"810","CARRIZO SPRINGS TX",-99.86119843,28.52256584,14
"811","CARROLL IA",-94.86740875,42.06593704,7
"812","CARROLL OH",-82.70081329,39.79898071,1
"813","CARROLLTON GA",-85.07631683,33.58019638,42
"814","CARROLLTON KY",-85.17919159,38.68099976,2
"815","CARROLLTON MO",-93.4960556,39.35842896,1
"816","CARROLLTON OH",-81.08522034,40.57297134,2
"817","CARROLLTON TX",-96.89080811,32.95380783,69
"818","CARROLLTOWN PA",-78.70822144,40.60308075,1
"819","CARSON CA",-118.28374481,33.8312645,183
"820","CARSON CITY NV",-119.76879883,39.16352844,85
"821","CARTERET NJ",-74.2276535,40.57754135,33
"822","CARTERSVILLE GA",-84.79982758,34.1654892,40
"823","CARTHAGE IL",-91.13681793,40.41659546,1
"824","CARTHAGE MO",-94.31087494,37.17650223,31
"825","CARTHAGE MS",-89.53627777,32.73288345,1
"826","CARTHAGE NY",-75.60883331,43.97806549,2
"827","CARTHAGE SD",-97.71016693,44.17021179,1
"828","CARTHAGE TN",-85.95146179,36.2523613,1
"829","CARTHAGE TX",-94.33757019,32.15785217,9
"830","CARUTHERSVILLE MO",-89.65577698,36.19351578,2
"831","CARY IL",-88.23856354,42.21179962,7
"832","CARY NC",-78.78055573,35.79200745,280
"833","CARYVILLE TN",-84.22605133,36.2987175,1
"834","CASA GRANDE AZ",-111.75901794,32.87965393,101
"835","CASCADE LOCKS OR",-121.89284515,45.66971588,23
"836","CASHION OK",-97.67902374,35.79806137,1
"837","CASHMERE WA",-120.47274017,47.52220535,3
"838","CASNOVIA MI",-85.79045105,43.23496628,3
"839","CASPER WY",-106.31475067,42.86667633,25
"840","CASSOPOLIS MI",-86.00973511,41.91165924,1
"841","CASSVILLE MO",-93.86898804,36.67718124,3
"842","CASTALIA OH",-82.80828857,41.40028,2
"843","CASTILE NY",-78.05419922,42.6289978,6
"844","CASTLE HILLS TX",-98.51991272,29.52467346,2
"845","CASTLE ROCK CO",-104.85781097,39.37207031,50
"846","CASTLE SHANNON PA",-80.021698,40.3650856,8
"847","CASTLEWOOD SD",-97.03081512,44.72495651,1
"848","CASTROVILLE TX",-98.87910461,29.35617065,2
"849","CATHEDRAL CITY CA",-116.46634674,33.77960205,28
"850","CATLETTSBURG KY",-82.59997559,38.40486908,2
"851","CATOOSA OK",-95.74643707,36.18903351,3
"852","CATSKILL NY",-73.86399841,42.21760178,5
"853","CAVE CREEK AZ",-111.95235443,33.83345795,17
"854","CAYCE SC",-81.05870819,33.97318649,3
"855","CAZENOVIA NY",-75.85186005,42.93000031,8
"856","CEDAR CITY UT",-113.06357574,37.67730713,16
"857","CEDAR FALLS IA",-92.44594574,42.52773285,31
"858","CEDAR GROVE NJ",-74.22842407,40.8519516,1
"859","CEDAR GROVE WI",-87.82375336,43.56973648,1
"860","CEDAR PARK TX",-97.82061005,30.50554466,22
"861","CEDAR RAPIDS IA",-91.66259766,41.98337555,449
"862","CEDAR SPRINGS MI",-85.55171967,43.22346115,1
"863","CEDARBURG WI",-87.9877243,43.29684067,11
"864","CEDARTOWN GA",-85.25636292,34.03249741,3
"865","CEDARVILLE OH",-83.80859375,39.74424362,2
"866","CELINA TX",-96.78490448,33.32471085,1
"867","CENTER LINE MI",-83.02747345,42.48490524,11
"868","CENTER POINT AL",-86.68362427,33.64584732,8
"869","CENTERVILLE IA",-92.87467957,40.73418045,10
"870","CENTERVILLE IN",-84.99629211,39.81794739,1
"871","CENTERVILLE OH",-84.15953064,39.6285553,8
"872","CENTRAL CITY CO",-105.51554871,39.80203629,1
"873","CENTRAL POINT OR",-122.91874695,42.37548828,3
"874","CENTRAL SC",-82.78075409,34.72467041,12
"875","CENTRALIA IL",-89.13375092,38.52496719,8
"876","CENTRALIA MO",-92.13832855,39.2105484,4
"877","CENTRALIA WA",-122.96793365,46.71740723,16
"878","CENTRE AL",-85.67890167,34.15224838,2
"879","CENTREVILLE IL",-90.12549591,38.58330154,8
"880","CENTREVILLE MD",-76.06595612,39.04180145,1
"881","CERES CA",-120.95990753,37.59457016,55
"882","CERRITOS CA",-118.06650543,33.85832214,20
"883","CHADRON NE",-102.99981689,42.83535004,13
"884","CHAMBERLAIN SD",-99.33099365,43.80810547,1
"885","CHAMBERSBURG PA",-77.66046906,39.93768692,12
"886","CHAMBLEE GA",-84.29881287,33.89216995,5
"887","CHAMPAIGN IL",-88.24346161,40.11659622,671
"888","CHAMPLIN MN",-93.39782715,45.18864059,7
"889","CHANDLER AZ",-111.84283447,33.3062439,392
"890","CHANDLER OK",-96.88135529,35.70169067,9
"891","CHANHASSEN MN",-93.53160858,44.86223221,2
"892","CHANUTE KS",-95.45789337,37.67946243,7
"893","CHAPEL HILL NC",-79.05697632,35.91110611,939
"894","CHAPEL HILL TN",-86.76481628,35.60889816,1
"895","CHAPIN SC",-81.34924316,34.16627884,1
"896","CHARDON OH",-81.2011795,41.58335114,4
"897","CHARITON IA",-93.31124878,41.01361847,2
"898","CHARLES TOWN WV",-77.86264038,39.29033279,17
"899","CHARLESTON IL",-88.17610931,39.49612045,20
"900","CHARLESTON MO",-89.35055542,36.92086792,1
"901","CHARLESTON SC",-79.93032074,32.77671814,1990
"902","CHARLESTON WV",-81.63149261,38.34872055,774
"903","CHARLESTOWN IN",-85.67014313,38.45307159,2
"904","CHARLEVOIX MI",-85.258255,45.31790924,1
"905","CHARLOTTE MI",-84.83589935,42.56380844,1
"906","CHARLOTTE NC",-80.84257507,35.22746277,8659
"907","CHARLOTTE TX",-98.70683289,28.86248016,1
"908","CHARLOTTESVILLE VA",-78.49123383,38.03798676,1103
"909","CHASE CITY VA",-78.45783997,36.79962921,2
"910","CHASKA MN",-93.60231781,44.78918457,7
"911","CHATHAM IL",-89.70467377,39.67619324,18
"912","CHATHAM MA",-69.95849609,41.68234253,1
"913","CHATHAM NY",-73.59416199,42.3643074,11
"914","CHATHAM VA",-79.39749146,36.82584,10
"915","CHATSWORTH GA",-84.76963043,34.76615524,4
"916","CHATTANOOGA TN",-85.30583954,35.04058456,910
"917","CHAZY NY",-73.43500519,44.89001465,1
"918","CHECOTAH OK",-95.52338409,35.47038651,20
"919","CHEEKTOWAGA NY",-78.75413513,42.90357208,23
"920","CHEHALIS WA",-122.97650909,46.66357803,1
"921","CHELAN WA",-120.01865387,47.84073639,4
"922","CHELSEA AL",-86.63014984,33.34026718,24
"923","CHELSEA MA",-71.03151703,42.39189529,13
"924","CHELTENHAM PA",-75.09356689,40.06132126,7
"925","CHENEY KS",-97.78330994,37.6300087,2
"926","CHENEY WA",-117.5782547,47.48730087,24
"927","CHEROKEE AL",-87.97318268,34.75738144,1
"928","CHERRY HILL NJ",-75.03024292,39.93510437,110
"929","CHERRYFIELD ME",-67.92087555,44.60442734,2
"930","CHERRYVALE KS",-95.55271912,37.270504,1
"931","CHESANING MI",-84.1146698,43.18473816,1
"932","CHESAPEAKE BEACH MD",-76.53400421,38.68645096,33
"933","CHESAPEAKE VA",-76.27422333,36.81948853,474
"934","CHESHIRE CT",-72.89962006,41.50049591,9
"935","CHESTER IL",-89.82231903,37.91368103,2
"936","CHESTER NJ",-74.69606018,40.78449631,3
"937","CHESTER PA",-75.35475159,39.84973145,89
"938","CHESTER SC",-81.2141037,34.7049675,45
"939","CHESTER WV",-80.56246948,40.61351013,1
"940","CHESTERFIELD MO",-90.5772934,38.6631279,200
"941","CHESTERTOWN MD",-76.0662384,39.20907593,26
"942","CHETEK WI",-91.65122986,45.31412888,2
"943","CHEVERLY MD",-76.91530609,38.92858505,17
"944","CHEVY CHASE MD",-77.07595825,38.97138977,77
"945","CHEWELAH WA",-117.71694183,48.27609634,19
"946","CHEYENNE WY",-104.81838989,41.13345718,73
"947","CHICAGO HEIGHTS IL",-87.63541412,41.506073,13
"948","CHICAGO IL",-87.6503067,41.85000992,32728
"949","CHICAGO RIDGE IL",-87.77906036,41.70148849,9
"950","CHICKAMAUGA GA",-85.29045105,34.87113571,11
"951","CHICKASHA OK",-97.93728638,35.05269241,6
"952","CHICO CA",-121.83944702,39.72846222,1085
"953","CHICOPEE MA",-72.60691071,42.14902496,17
"954","CHILDERSBURG AL",-86.35501862,33.27838135,1
"955","CHILDRESS TX",-100.20504761,34.42647171,1
"956","CHILHOWEE MO",-93.85474396,38.58897018,1
"957","CHILLICOTHE IL",-89.48628998,40.92245865,4
"958","CHILLICOTHE MO",-93.55298615,39.79542542,36
"959","CHILLICOTHE OH",-82.98206329,39.33310699,17
"960","CHINA GROVE NC",-80.58115387,35.56945801,42
"961","CHINCOTEAGUE VA",-75.37820435,37.93326569,1
"962","CHINO CA",-117.6906662,34.0121727,48
"963","CHIPLEY FL",-85.53816223,30.78241539,3
"964","CHIPPEWA FALLS WI",-91.3935318,44.93660736,3
"965","CHISHOLM MN",-92.88430023,47.4890976,3
"966","CHOCTAW OK",-97.26795197,35.49282074,7
"967","CHOWCHILLA CA",-120.26199341,37.12313843,5
"968","CHRISTIANSBURG VA",-80.40843201,37.1302948,19
"969","CHRISTOPHER IL",-89.05361938,37.97265244,5
"970","CHULA VISTA CA",-117.08574677,32.64037704,391
"971","CHURCH HILL TN",-82.71310425,36.52270126,1
"972","CICERO IL",-87.75395203,41.84553909,10
"973","CICERO IN",-86.01347351,40.12386703,1
"974","CIMARRON NM",-104.91853333,36.51176453,1
"975","CINCINNATI OH",-84.51939392,39.10413742,3277
"976","CINNAMINSON NJ",-74.99165344,39.9969101,3
"977","CIRCLEVILLE OH",-82.94564056,39.6006813,1
"978","CITRONELLE AL",-88.22799683,31.09094429,1
"979","CITRUS HEIGHTS CA",-121.28292084,38.70672607,12
"980","CLAIRTON PA",-79.88103485,40.2925148,5
"981","CLANTON AL",-86.62932587,32.83919907,5
"982","CLAREMONT CA",-117.72145081,34.09675217,228
"983","CLAREMONT NH",-72.33439636,43.37068939,17
"984","CLAREMORE OK",-95.61654663,36.31294632,7
"985","CLARENDON HILLS IL",-87.95468903,41.79769516,2
"986","CLARION PA",-79.38504028,41.215065,3
"987","CLARKS SUMMIT PA",-75.70759583,41.48881531,13
"988","CLARKSBURG TN",-88.393013,35.87177277,1
"989","CLARKSBURG WV",-80.34414673,39.28092575,18
"990","CLARKSDALE MS",-90.57128143,34.20030212,7
"991","CLARKSTON GA",-84.2394104,33.80961227,3
"992","CLARKSTON WA",-117.04723358,46.41588593,6
"993","CLARKSVILLE IN",-85.75987244,38.29683304,1
"994","CLARKSVILLE TN",-87.35944366,36.52993011,165
"995","CLARKTON NC",-78.6556015,34.48762131,1
"996","CLAYCOMO MO",-94.49269867,39.20272827,1
"997","CLAYPOOL IN",-85.88032532,41.1293335,1
"998","CLAYTON CA",-121.93805695,37.94074249,4
"999","CLAYTON DE",-75.63150787,39.29172897,6
"1000","CLAYTON IN",-86.52271271,39.68913651,1
"1001","CLAYTON MI",-84.23601532,41.86322021,2
"1002","CLAYTON MO",-90.32382965,38.64260101,44
"1003","CLAYTON NC",-78.45562744,35.6511879,25
"1004","CLAYTON NJ",-75.0915451,39.66054535,2
"1005","CLE ELUM WA",-120.94167328,47.19517517,3
"1006","CLEAR LAKE SHORES TX",-95.03226471,29.54773712,893
"1007","CLEARFIELD UT",-112.02733612,41.11647415,3
"1008","CLEARWATER FL",-82.79984283,27.9665451,267
"1009","CLEARWATER KS",-97.50491333,37.50294876,3
"1010","CLEBURNE TX",-97.38722992,32.34804535,22
"1011","CLEMENTON NJ",-74.98200226,39.81152725,1
"1012","CLEMMONS NC",-80.38154602,36.02172089,15
"1013","CLEMSON SC",-82.83683014,34.68382645,88
"1014","CLEVELAND GA",-83.76287842,34.59722519,1
"1015","CLEVELAND HEIGHTS OH",-81.55568695,41.52017975,99
"1016","CLEVELAND NC",-80.6764679,35.73367691,1
"1017","CLEVELAND OH",-81.69516754,41.49978256,8130
"1018","CLEVELAND TN",-84.87675476,35.15940094,58
"1019","CLEVELAND TX",-95.08600616,30.34188652,10
"1020","CLEVER MO",-93.47362518,37.0306015,1
"1021","CLEWISTON FL",-80.93336487,26.75513649,3
"1022","CLIFFSIDE PARK NJ",-73.98683167,40.82172394,10
"1023","CLIFTON NJ",-74.16278076,40.85860062,28
"1024","CLIFTON PARK NY",-73.76983643,42.8658638,56
"1025","CLIFTON SPRINGS NY",-77.13955688,42.96201324,5
"1026","CLINTON CT",-72.52671814,41.27874756,3
"1027","CLINTON IA",-90.19799042,41.84345627,17
"1028","CLINTON IN",-87.39801025,39.65688324,10
"1029","CLINTON KY",-88.99338531,36.66743469,1
"1030","CLINTON LA",-91.0161438,30.86631775,1
"1031","CLINTON MA",-71.69485474,42.42619705,5
"1032","CLINTON MO",-93.7784729,38.36861038,5
"1033","CLINTON MS",-90.33226776,32.34069061,12
"1034","CLINTON NC",-78.32278442,34.99841309,1
"1035","CLINTON NY",-75.37784576,43.04865265,3
"1036","CLINTON OH",-81.62986755,40.92760849,1
"1037","CLINTON SC",-81.88014984,34.47286224,9
"1038","CLINTON TN",-84.13148499,36.10355759,7
"1039","CLINTON WI",-88.86540985,42.5578537,1
"1040","CLIO MI",-83.73412323,43.17772293,2
"1041","CLIVE IA",-93.72477722,41.60302734,13
"1042","CLOQUET MN",-92.4598465,46.72146988,2
"1043","CLOVER SC",-81.22589874,35.11135864,2
"1044","CLOVERDALE CA",-123.01920319,38.80516052,1
"1045","CLOVIS CA",-119.70470428,36.82522583,55
"1046","CLOVIS NM",-103.20671082,34.40181732,21
"1047","CLUTE TX",-95.39927673,29.02498436,3
"1048","CLYDE NY",-76.86891937,43.08428955,1
"1049","CLYDE OH",-82.97480774,41.30446243,2
"1050","COACHELLA CA",-116.17536163,33.68059158,26
"1051","COAL CITY IL",-88.28557587,41.28782272,2
"1052","COALINGA CA",-120.36200714,36.13978577,3
"1053","COATESVILLE PA",-75.82329559,39.98334885,32
"1054","COATS NC",-78.6716156,35.40827179,11
"1055","COCHRAN GA",-83.35463715,32.38718414,2
"1056","COCOA BEACH FL",-80.6068573,28.3203907,160
"1057","COCOA FL",-80.74181366,28.38667297,10
"1058","COEBURN VA",-82.46360016,36.94399643,1
"1059","COEUR D'ALENE ID",-116.78192902,47.67768478,23
"1060","COFFEYVILLE KS",-95.61667633,37.03759766,1
"1061","COHASSET MA",-70.8026123,42.24186325,9
"1062","COHOES NY",-73.6990509,42.77442169,7
"1063","COKER AL",-87.68799591,33.2463913,14
"1064","COLCHESTER CT",-72.33102417,41.5759201,3
"1065","COLD SPRING KY",-84.43971252,39.02180862,3
"1066","COLD SPRING NY",-73.9535675,41.42040253,5
"1067","COLDSPRING TX",-95.12992096,30.5929203,8
"1068","COLDWATER MI",-85.00062561,41.94022369,1
"1069","COLDWATER OH",-84.6279068,40.47993851,5
"1070","COLEMAN FL",-82.06983185,28.80015755,1
"1071","COLFAX CA",-120.95514679,39.10037994,6
"1072","COLFAX IA",-93.2455368,41.6778717,1
"1073","COLLEGE PARK GA",-84.44933319,33.65347672,260
"1074","COLLEGE PARK MD",-76.93619537,38.98080444,1348
"1075","COLLEGE STATION TX",-96.33758545,30.62316895,445
"1076","COLLEGEDALE TN",-85.05016327,35.0533371,4
"1077","COLLEGEVILLE MN",-94.36388397,45.59444427,5
"1078","COLLEGEVILLE PA",-75.4506073,40.18598557,12
"1079","COLLEYVILLE TX",-97.15543365,32.88101959,10
"1080","COLLIERVILLE TN",-89.66448212,35.0423317,17
"1081","COLLINGDALE PA",-75.27611542,39.91185379,1
"1082","COLLINGSWOOD NJ",-75.07028961,39.9186058,28
"1083","COLLINSTON LA",-91.87198639,32.69124222,2
"1084","COLLINSVILLE AL",-85.86063385,34.26427078,5
"1085","COLLINSVILLE IL",-89.98478699,38.67050171,135
"1086","COLLINSVILLE OK",-95.83948517,36.36487961,1
"1087","COLMA CA",-122.46109772,37.67665482,42
"1088","COLOMA MI",-86.30813599,42.18628693,4
"1089","COLONIAL BEACH VA",-76.96711731,38.25397491,1
"1090","COLONIE NY",-73.83889771,42.72444534,11
"1091","COLORADO SPRINGS CO",-104.8225174,38.83369446,1252
"1092","COLTON CA",-117.31536865,34.0738945,16
"1093","COLUMBIA FALLS MT",-114.19332123,48.36879349,4
"1094","COLUMBIA HEIGHTS MN",-93.24828339,45.04322815,8
"1095","COLUMBIA IL",-90.20130157,38.44375992,44
"1096","COLUMBIA KY",-85.30601501,37.10298538,4
"1097","COLUMBIA MO",-92.33429718,38.95169067,2630
"1098","COLUMBIA MS",-89.82949829,31.25465012,1
"1099","COLUMBIA PA",-76.50388336,40.03407669,3
"1100","COLUMBIA SC",-81.04045105,34.00138855,2317
"1101","COLUMBIA TN",-87.03533173,35.61502457,190
"1102","COLUMBIANA OH",-80.69345093,40.88829041,1
"1103","COLUMBIAVILLE MI",-83.41014862,43.15683746,2
"1104","COLUMBUS GA",-84.98313141,32.46828842,728
"1105","COLUMBUS IN",-85.92284393,39.20959473,43
"1106","COLUMBUS MS",-88.42742157,33.49581909,34
"1107","COLUMBUS NC",-82.19678497,35.25350189,3
"1108","COLUMBUS NE",-97.36936188,41.42973709,9
"1109","COLUMBUS OH",-82.99890137,39.96136475,7320
"1110","COLUMBUS WI",-89.01557922,43.33828735,5
"1111","COLVILLE WA",-117.90757751,48.54657745,1
"1112","COMBES TX",-97.73451233,26.24924469,3
"1113","COMER GA",-83.12491608,34.06397629,1
"1114","COMMERCE CITY CO",-104.92683411,39.81377792,5
"1115","COMMERCE GA",-83.46348572,34.20763397,2
"1116","COMMERCE TX",-95.90060425,33.24729538,34
"1117","COMO MS",-89.94004822,34.51066208,2
"1118","COMPTON CA",-118.22187042,33.89606857,422
"1119","CONCORD CA",-122.03333282,37.97780228,97
"1120","CONCORD GA",-84.43733978,33.09128189,1
"1121","CONCORD MA",-71.34809113,42.46035004,3
"1122","CONCORD NC",-80.57880402,35.4092598,196
"1123","CONCORD NH",-71.53688812,43.20820999,56
"1124","CONCORDIA KS",-97.66313934,39.57102203,2
"1125","CONCORDIA MO",-93.56906128,38.98339462,12
"1126","CONNEAUT OH",-80.55375671,41.94755936,6
"1127","CONNELL WA",-118.86353302,46.66334534,33
"1128","CONNELLSVILLE PA",-79.58900452,40.01786041,4
"1129","CONNERSVILLE IN",-85.13545227,39.64817047,12
"1130","CONOVER NC",-81.21835327,35.70663834,124
"1131","CONRAD IA",-92.87491608,42.22472,1
"1132","CONROE TX",-95.45646667,30.31249237,48
"1133","CONSHOHOCKEN PA",-75.30096436,40.07962418,3
"1134","CONVOY OH",-84.70248413,40.91695404,1
"1135","CONWAY AR",-92.4426651,35.08877563,160
"1136","CONWAY SC",-79.04202271,33.83802795,37
"1137","CONWAY SPRINGS KS",-97.64313507,37.39021683,3
"1138","CONYERS GA",-84.0175705,33.66764832,52
"1139","COOK MN",-92.69020844,47.85202789,1
"1140","COOKEVILLE TN",-85.50189972,36.16290665,49
"1141","COOLIDGE AZ",-111.51917267,32.9781456,2
"1142","COON RAPIDS MN",-93.32348633,45.16527176,13
"1143","COOPERSBURG PA",-75.3898468,40.51155472,1
"1144","COOPERSTOWN NY",-74.9236908,42.70100784,19
"1145","COOPERSVILLE MI",-85.93455505,43.06417847,2
"1146","COOS BAY OR",-124.219841,43.36757278,11
"1147","COPLEY OH",-81.64421844,41.09919357,1
"1148","COPPELL TX",-97.01548004,32.95487213,14
"1149","COPPERAS COVE TX",-97.90343475,31.12462616,18
"1150","CORAL GABLES FL",-80.26779938,25.72242165,75
"1151","CORALVILLE IA",-91.58083344,41.6765976,15
"1152","CORAOPOLIS PA",-80.16625214,40.51863861,2
"1153","CORBIN KY",-84.09648132,36.94906235,5
"1154","CORCORAN CA",-119.56207275,36.09794235,8
"1155","CORDELE GA",-83.78203583,31.96388817,1
"1156","CORDOVA AL",-87.18320465,33.75994492,10
"1157","CORINTH MS",-88.52302551,34.93960571,26
"1158","CORINTH TX",-99.87008667,32.85448456,9
"1159","CORNELIUS NC",-80.85160828,35.48339462,6
"1160","CORNERSVILLE TN",-86.83959198,35.36151505,4
"1161","CORNING AR",-90.58023834,36.40788269,1
"1162","CORNING NY",-77.05406189,42.14312744,18
"1163","CORONA CA",-117.56881714,33.87516785,291
"1164","CORONADO CA",-117.18466187,32.6861763,86
"1165","CORPUS CHRISTI TX",-97.42076874,27.77859879,278
"1166","CORRALES NM",-106.60803986,35.23794174,5
"1167","CORRY PA",-79.63973999,41.92025375,2
"1168","CORSICANA TX",-96.46954346,32.09554291,11
"1169","CORTE MADERA CA",-122.5294342,37.9252739,14
"1170","CORTEZ CO",-108.56803894,37.35043716,1
"1171","CORTLAND NY",-76.17972565,42.60138702,63
"1172","CORTLAND OH",-80.72497559,41.3302803,5
"1173","CORVALLIS OR",-123.2646637,44.56417084,305
"1174","CORYDON IN",-86.12213135,38.2123642,3
"1175","COSHOCTON OH",-81.85901642,40.27225113,5
"1176","COSTA MESA CA",-117.92044067,33.64131927,88
"1177","COTATI CA",-122.70919037,38.32655334,58
"1178","COTTAGE GROVE MN",-92.88017273,44.842556,10
"1179","COTTONDALE FL",-85.37663269,30.79734612,1
"1180","COTTONWOOD AZ",-112.01107788,34.739048,7
"1181","COTTONWOOD FALLS KS",-96.54312897,38.37212372,7
"1182","COTTONWOOD HEIGHTS UT",-111.8369751,40.63098145,1
"1183","COTTONWOOD ID",-116.35170746,46.0481987,1
"1184","COULTERVILLE IL",-89.60566711,38.18644714,1
"1185","COUNCIL BLUFFS IA",-95.86154938,41.26196289,42
"1186","COUNCIL GROVE KS",-96.49236298,38.66096115,109
"1187","COUNTRY CLUB HILLS IL",-87.72031403,41.56811142,10
"1188","COUPEVILLE WA",-122.68867493,48.21968842,4
"1189","COURTLAND AL",-87.30978394,34.66937637,2
"1190","COURTLAND MS",-89.94303894,34.24124146,1
"1191","COVINA CA",-117.89190674,34.09014511,32
"1192","COVINGTON GA",-83.86009216,33.59708405,39
"1193","COVINGTON IN",-87.39381409,40.13796234,2
"1194","COVINGTON KY",-84.50816345,39.08356476,60
"1195","COVINGTON LA",-90.10121918,30.475914,15
"1196","COVINGTON OH",-84.35377502,40.12005997,3
"1197","COVINGTON OK",-97.58732605,36.30782318,2
"1198","COVINGTON VA",-79.99378204,37.79362106,5
"1199","COWARD SC",-79.74658966,33.97372055,1
"1200","COWETA OK",-95.65141296,35.95218658,3
"1201","COXSACKIE NY",-73.80188751,42.35128403,8
"1202","CRAIG CO",-107.54798126,40.51535034,1
"1203","CRANDALL TX",-96.45626068,32.62812042,14
"1204","CRANE MO",-93.57215881,36.90554047,2
"1205","CRANFORD NJ",-74.29885101,40.65885925,17
"1206","CRANSTON RI",-71.43634033,41.77997971,85
"1207","CRAWFORDSVILLE IN",-86.89406586,40.04439926,8
"1208","CRESCENT CITY CA",-124.2048645,41.75559235,8
"1209","CRESCENT CITY FL",-81.51012421,29.43062973,1
"1210","CRESCO IA",-92.12171173,43.37280273,2
"1211","CREST HILL IL",-88.09871674,41.55462646,7
"1212","CRESTED BUTTE CO",-106.98877716,38.86982346,1
"1213","CRESTLINE OH",-82.73641205,40.78746033,1
"1214","CRESTON IA",-94.3616333,41.05845642,11
"1215","CRESTVIEW FL",-86.57064819,30.76231766,21
"1216","CRESTVIEW KY",-84.41716003,39.02523804,18
"1217","CRESTWOOD IL",-87.75239563,41.66117096,6
"1218","CRESTWOOD KY",-85.47231293,38.32429123,3
"1219","CRESTWOOD MO",-90.38228607,38.55702972,1
"1220","CRESWELL OR",-123.02629852,43.91783142,1
"1221","CRETE IL",-87.63152313,41.44472885,1
"1222","CRETE NE",-96.96214294,40.62769318,1
"1223","CREVE COEUR MO",-90.42288971,38.66108322,39
"1224","CREWE VA",-78.12284088,37.17355728,12
"1225","CROCKETT TX",-95.45687866,31.31850815,1
"1226","CROOKSTON MN",-96.60908508,47.77420044,5
"1227","CROSS PLAINS TN",-86.69587708,36.54875183,3
"1228","CROSS ROADS TX",-95.9679184,32.04952621,1
"1229","CROSSVILLE IL",-88.06548309,38.1617775,1
"1230","CROSSVILLE TN",-85.0270462,35.9490509,66
"1231","CROTON-ON-HUDSON NY",-73.89041901,41.2085762,215
"1232","CROWLEY LA",-92.37494659,30.21465874,1
"1233","CROWLEY TX",-97.36329651,32.57945633,2
"1234","CROWN POINT IN",-87.36541748,41.41695023,34
"1235","CRYSTAL CITY TX",-99.82878113,28.67775726,2
"1236","CRYSTAL LAKE IL",-88.3161087,42.2411499,47
"1237","CRYSTAL MN",-93.36638641,45.05664063,26
"1238","CRYSTAL RIVER FL",-82.59243011,28.90281487,4
"1239","CRYSTAL SPRINGS MS",-90.35726929,31.98783875,7
"1240","CUBA MO",-91.40387726,38.06311035,34
"1241","CUDAHY WI",-87.86171722,42.9596405,1
"1242","CUERO TX",-97.28947449,29.09457397,17
"1243","CULLMAN AL",-86.84370422,34.17510605,12
"1244","CULPEPER VA",-77.99610901,38.47347641,19
"1245","CULVER IN",-86.42308044,41.21883011,1
"1246","CUMBERLAND MD",-78.76217651,39.65284729,21
"1247","CUMBY TX",-95.8399353,33.13761902,2
"1248","CUMMING GA",-84.1401825,34.2074852,65
"1249","CUPERTINO CA",-122.03420258,37.32306671,177
"1250","CURRIE MN",-95.66686249,44.06391525,1
"1251","CUSHING OK",-96.76766968,35.98506546,5
"1252","CUT AND SHOOT TX",-95.35832214,30.33357811,43
"1253","CUYAHOGA FALLS OH",-81.48397064,41.1338768,347
"1254","CYPRESS CA",-118.0384903,33.81704712,33
"1255","D'IBERVILLE MS",-88.88684845,30.43582153,3
"1256","DACULA GA",-83.89762878,33.9887352,38
"1257","DADE CITY FL",-82.19556427,28.36546135,4
"1258","DADEVILLE AL",-85.76355743,32.83142853,8
"1259","DAHLONEGA GA",-83.98484802,34.53287125,11
"1260","DAINGERFIELD TX",-94.72219086,33.03223801,1
"1261","DALHART TX",-102.51464844,36.05970764,1
"1262","DALLAS GA",-84.84075165,33.92391586,27
"1263","DALLAS NC",-81.17551422,35.31675339,1
"1264","DALLAS OR",-123.31984711,44.91903687,3
"1265","DALLAS PA",-75.96231842,41.33643723,4
"1266","DALLAS TX",-96.80088043,32.78369904,16641
"1267","DALTON GA",-84.97008514,34.76976776,97
"1268","DALTON OH",-81.69519043,40.79919815,3
"1269","DALWORTHINGTON GARDENS TX",-97.1558075,32.7033844,2
"1270","DALY CITY CA",-122.46450806,37.70376968,263
"1271","DANBURY CT",-73.45310974,41.39499664,45
"1272","DANDRIDGE TN",-83.41452026,36.0157814,10
"1273","DANFORTH ME",-67.86733246,45.66029358,19
"1274","DANVERS MA",-70.92879486,42.57507324,3
"1275","DANVILLE CA",-122.00231934,37.82156754,20
"1276","DANVILLE IL",-87.62978363,40.12442398,80
"1277","DANVILLE IN",-86.52632904,39.76076126,7
"1278","DANVILLE KY",-84.77213287,37.6458931,9
"1279","DANVILLE PA",-76.61188507,40.96371078,5
"1280","DANVILLE VA",-79.39437866,36.58641434,69
"1281","DAPHNE AL",-87.90383148,30.60381317,18
"1282","DARBY PA",-75.25850677,39.91879654,1
"1283","DARIEN CT",-73.46835327,41.0790329,5
"1284","DARIEN IL",-87.97415161,41.75206757,3
"1285","DARLINGTON SC",-79.86645508,34.30082321,15
"1286","DASSEL MN",-94.30751801,45.08166885,1
"1287","DAVENPORT FL",-81.60109711,28.1620388,4
"1288","DAVENPORT IA",-90.57814026,41.52380753,171
"1289","DAVIDSON NC",-80.8433075,35.49843216,17
"1290","DAVIE FL",-80.23148346,26.0657177,109
"1291","DAVIS CA",-121.74217224,38.54467773,237
"1292","DAVISON MI",-83.51786804,43.0346489,3
"1293","DAWSONVILLE GA",-84.11881256,34.42126083,5
"1294","DAYTON IN",-86.76915741,40.37435913,1
"1295","DAYTON KY",-84.47278595,39.11274338,104
"1296","DAYTON OH",-84.19126892,39.75915146,1670
"1297","DAYTON TN",-85.01251221,35.49424744,14
"1298","DAYTON TX",-94.8854599,30.04724884,1
"1299","DAYTON VA",-78.93834686,38.41519165,20
"1300","DAYTONA BEACH FL",-81.02253723,29.21147537,404
"1301","DE PERE WI",-88.06053925,44.4486618,15
"1302","DE SOTO KS",-94.96877289,38.97918701,17
"1303","DE SOTO MO",-90.55529022,38.13964462,20
"1304","DEARBORN HEIGHTS MI",-83.27328491,42.33712769,13
"1305","DEARBORN MI",-83.1758728,42.32239914,126
"1306","DEBARY FL",-81.30838776,28.88345909,28
"1307","DECATUR AL",-86.98355103,34.60622406,71
"1308","DECATUR AR",-94.46137238,36.33617401,1
"1309","DECATUR GA",-84.29631805,33.77489471,588
"1310","DECATUR IL",-88.95516968,39.84060287,138
"1311","DECATUR IN",-84.93001556,40.82580566,11
"1312","DECATUR TX",-97.58672333,33.23470306,5
"1313","DECORAH IA",-91.78575134,43.30333328,12
"1314","DEDHAM MA",-71.16512299,42.24193954,40
"1315","DEEPHAVEN MN",-93.51553345,44.9361763,1
"1316","DEER CREEK OK",-97.51993561,36.80317307,24
"1317","DEER PARK TX",-95.1242981,29.70559502,5
"1318","DEER PARK WA",-117.47897339,47.95389938,7
"1319","DEERFIELD BEACH FL",-80.09928131,26.31905365,84
"1320","DEERFIELD IL",-87.84490204,42.17103577,31
"1321","DEFIANCE OH",-84.35565948,41.28461838,19
"1322","DEL CITY OK",-97.44128418,35.44212723,11
"1323","DEL MAR CA",-117.26633453,32.95969391,20
"1324","DEL RIO TX",-100.89706421,29.36329842,18
"1325","DELANCO NJ",-74.95298004,40.05101013,3
"1326","DELANO CA",-119.24887848,35.76877975,2
"1327","DELAVAN IL",-89.54736328,40.37273788,5
"1328","DELAVAN WI",-88.644104,42.6329422,4
"1329","DELAWARE CITY DE",-75.59502411,39.57416534,20
"1330","DELAWARE OH",-83.06757355,40.29886627,29
"1331","DELLWOOD MO",-90.28582001,38.74936295,4
"1332","DELMAR DE",-75.57416534,38.45691299,2
"1333","DELMONT SD",-98.16448212,43.26812363,1
"1334","DELPHI IN",-86.67494202,40.58768845,1
"1335","DELPHOS OH",-84.34170532,40.84327698,4
"1336","DELRAY BEACH FL",-80.07209778,26.46233368,120
"1337","DELTA CO",-108.06983948,38.74222946,40
"1338","DELTONA FL",-81.25521088,28.90277863,11
"1339","DEMING NM",-107.75997925,32.26507187,13
"1340","DEMOPOLIS AL",-87.8364563,32.51809692,2
"1341","DENHAM SPRINGS LA",-90.95632935,30.4871006,11
"1342","DENISON IA",-95.35573578,42.01762009,4
"1343","DENISON TX",-96.53727722,33.75577164,2
"1344","DENMARK SC",-81.14172363,33.32278824,10
"1345","DENTON NC",-80.1153183,35.63389587,18
"1346","DENTON TX",-97.13349915,33.21514893,1071
"1347","DENVER CO",-104.98537445,39.73901749,9577
"1348","DENVER IA",-92.33773041,42.67134857,3
"1349","DENVER PA",-76.13667297,40.23331451,1
"1350","DENVILLE NJ",-74.47631836,40.89261246,4
"1351","DEPEW NY",-78.69154358,42.90420532,19
"1352","DEPOE BAY OR",-124.06079865,44.81190491,1
"1353","DERBY KS",-97.26980591,37.54567719,48
"1354","DERRY NH",-71.32653809,42.88068008,29
"1355","DES MOINES IA",-93.6210022,41.59817123,981
"1356","DES MOINES WA",-122.32665253,47.40114594,33
"1357","DES PERES MO",-90.43345642,38.60096741,6
"1358","DES PLAINES IL",-87.8833847,42.03343964,59
"1359","DESERT HOT SPRINGS CA",-116.50359344,33.96113586,26
"1360","DESTIN FL",-86.49551392,30.39405632,107
"1361","DETROIT MI",-83.04567719,42.33172226,6787
"1362","DETROIT TX",-95.26699829,33.66192245,5
"1363","DEXTER ME",-69.2824173,45.02368164,2
"1364","DEXTER MI",-83.88848114,42.33824158,3
"1365","DEXTER MO",-89.95834351,36.79595947,22
"1366","DIAMOND BAR CA",-117.84049988,33.97759247,15
"1367","DIBBLE OK",-97.63038635,35.03363037,1
"1368","DIBOLL TX",-94.78146362,31.18740463,2
"1369","DICKINSON ND",-102.78910065,46.87979889,22
"1370","DICKINSON TX",-95.05158234,29.46142769,10
"1371","DICKSON TN",-87.38776398,36.07693863,2
"1372","DIETERICH IL",-88.3795929,39.06205368,2
"1373","DIKE IA",-92.62843323,42.46409607,1
"1374","DILLON MT",-112.6397934,45.21606064,1
"1375","DILLON SC",-79.37909698,34.41096115,16
"1376","DINUBA CA",-119.38889313,36.543293,3
"1377","DISTRICT HEIGHTS MD",-76.88869476,38.85776138,30
"1378","DIXON CA",-121.82437134,38.44569778,9
"1379","DIXON IL",-89.4799881,41.83919907,1
"1380","DIXON MO",-92.09407043,37.99162674,1
"1381","DOBBS FERRY NY",-73.87168121,41.01457977,13
"1382","DODGE CITY KS",-100.01817322,37.75279617,4
"1383","DODGE NE",-96.88336945,41.7212944,1
"1384","DODGEVILLE WI",-90.13021088,42.96014023,1
"1385","DOLGEVILLE NY",-74.77229309,43.10081863,1
"1386","DOLORES CO",-108.50616455,37.47371292,2
"1387","DOLTON IL",-87.6072998,41.63914108,2
"1388","DONALDSONVILLE LA",-90.99317932,30.1011734,2
"1389","DONIPHAN MO",-90.82394409,36.62110138,132
"1390","DONNA TX",-98.05448914,26.17434883,5
"1391","DONORA PA",-79.85721588,40.17367935,11
"1392","DORAVILLE GA",-84.28286743,33.89825821,3
"1393","DOS PALOS CA",-120.62877655,36.98608398,1
"1394","DOTHAN AL",-85.39019775,31.22351265,48
"1395","DOUGLAS GA",-82.84980011,31.50903511,130
"1396","DOUGLASSVILLE TX",-94.35386658,33.19242096,1
"1397","DOUGLASVILLE GA",-84.74777222,33.75165939,92
"1398","DOUSMAN WI",-88.4726944,43.01404572,3
"1399","DOVER DE",-75.52090454,39.15853882,111
"1400","DOVER NH",-70.88840485,43.2059021,38
"1401","DOVER OH",-81.4782486,40.51688766,6
"1402","DOVER TN",-87.83837891,36.48816681,1
"1403","DOYLESTOWN OH",-81.69629669,40.96931458,6
"1404","DOYLESTOWN PA",-75.1292038,40.31054688,105
"1405","DRAPER UT",-111.87410736,40.5280838,5
"1406","DREW MS",-90.53083038,33.81049728,11
"1407","DRIPPING SPRINGS TX",-98.08734131,30.19070816,14
"1408","DRY PRONG LA",-92.53327179,31.58175659,1
"1409","DU QUOIN IL",-89.2414856,38.01353455,5
"1410","DUARTE CA",-117.97860718,34.13949966,5
"1411","DUBLIN CA",-121.93833923,37.70181274,194
"1412","DUBLIN GA",-82.90332794,32.540802,12
"1413","DUBLIN TX",-98.34241486,32.08526611,6
"1414","DUBLIN VA",-80.68517303,37.10611343,8
"1415","DUBOIS PA",-78.75974274,41.11929321,1
"1416","DUBUQUE IA",-90.67155457,42.51130295,117
"1417","DULUTH MN",-92.10697174,46.78300858,175
"1418","DUMAS AR",-91.48313904,33.88414001,3
"1419","DUNBAR PA",-79.61539459,39.97570801,11
"1420","DUNBAR WV",-81.73683167,38.36086655,11
"1421","DUNCAN OK",-97.95820618,34.50245667,5
"1422","DUNCANNON PA",-77.03134155,40.38898087,2
"1423","DUNCANVILLE TX",-96.9091568,32.65229034,50
"1424","DUNEDIN FL",-82.77127838,28.02050591,87
"1425","DUNLAP IL",-89.67893219,40.86199951,2
"1426","DUNMORE PA",-75.63155365,41.42010117,7
"1427","DUNN NC",-78.60855103,35.30678558,3
"1428","DUNNELLON FL",-82.46072388,29.04970551,4
"1429","DUNWOODY GA",-84.33460236,33.94631958,8
"1430","DURANGO CO",-107.88100433,37.27463913,87
"1431","DURANT OK",-96.37478638,33.99116135,7
"1432","DURHAM NC",-78.89787292,35.99412918,3718
"1433","DURHAM NH",-70.92732239,43.13511276,8
"1434","DUXBURY MA",-70.66990662,42.04032516,2
"1435","DYERSBURG TN",-89.38568878,36.03469849,3
"1436","EAGAN MN",-93.16746521,44.80387878,89
"1437","EAGLE CO",-106.82982635,39.655159,2
"1438","EAGLE ID",-116.35591888,43.69528198,6
"1439","EAGLE LAKE MN",-93.88172913,44.16489792,5
"1440","EAGLE PASS TX",-100.50028992,28.70978737,11
"1441","EAGLE POINT OR",-122.8052063,42.47254181,1
"1442","EAGLE RIVER WI",-89.24466705,45.91718674,18
"1443","EAGLE WI",-88.4746933,42.87947083,1
"1444","EAGLEVILLE MO",-93.9878006,40.46938705,3
"1445","EARLE AR",-90.4671402,35.27531052,4
"1446","EARLY TX",-98.94454956,31.74184799,1
"1447","EARTH TX",-102.41161346,34.23358154,13
"1448","EASLEY SC",-82.60394287,34.82990646,11
"1449","EAST CHICAGO IN",-87.44509125,41.64970398,8
"1450","EAST DUBLIN GA",-82.86959839,32.54988098,11
"1451","EAST GRAND FORKS MN",-97.02550507,47.93012619,4
"1452","EAST GREENWICH RI",-71.45487976,41.66058731,30
"1453","EAST HAMPTON NY",-72.18353271,40.96551895,6
"1454","EAST HARTFORD CT",-72.64693451,41.77160263,57
"1455","EAST HELENA MT",-111.9177475,46.58939743,60
"1456","EAST HILLS NY",-73.62597656,40.79386902,1
"1457","EAST JORDAN MI",-85.1240921,45.15808868,1
"1458","EAST LANSING MI",-84.48403931,42.73703384,684
"1459","EAST LIVERPOOL OH",-80.57673645,40.61891556,14
"1460","EAST LONGMEADOW MA",-72.51160431,42.06488037,1
"1461","EAST MCKEESPORT PA",-79.80618286,40.38326645,44
"1462","EAST MOLINE IL",-90.44459534,41.50070953,6
"1463","EAST ORANGE NJ",-74.21418762,40.76618958,401
"1464","EAST PALO ALTO CA",-122.143013,37.46857452,24
"1465","EAST PEORIA IL",-89.58027649,40.66614151,17
"1466","EAST POINT GA",-84.43933868,33.67996979,103
"1467","EAST PROVIDENCE RI",-71.36916351,41.81398392,20
"1468","EAST ROCHESTER NY",-77.48701477,43.1086731,39
"1469","EAST TROY WI",-88.40551758,42.78525925,13
"1470","EASTLAKE OH",-81.45001984,41.65415955,9
"1471","EASTMAN GA",-83.17722321,32.19805527,16
"1472","EASTON MD",-76.07592773,38.77448654,17
"1473","EASTON PA",-75.21966553,40.68871689,99
"1474","EATON OH",-84.6366806,39.74417877,2
"1475","EATONTON GA",-83.38854218,33.32721329,5
"1476","EATONTOWN NJ",-74.05027008,40.29634094,1
"1477","EATONVILLE WA",-122.2686615,46.86676407,4
"1478","EAU CLAIRE WI",-91.49876404,44.81137466,90
"1479","EDCOUCH TX",-97.96096802,26.29463768,4
"1480","EDEN ID",-114.21231842,42.60542297,1
"1481","EDEN NC",-79.76634216,36.48883438,3
"1482","EDEN PRAIRIE MN",-93.48716736,44.85310745,130
"1483","EDGAR SPRINGS MO",-91.86699677,37.70466232,7
"1484","EDGEFIELD SC",-81.92941284,33.78982162,1
"1485","EDGEWATER CO",-105.06536102,39.75324249,1
"1486","EDGEWATER FL",-80.90637207,28.99158287,40
"1487","EDGEWOOD WA",-122.29637909,47.2498703,10
"1488","EDINA MN",-93.34928131,44.91236496,19
"1489","EDINA MO",-92.1732254,40.16763306,19
"1490","EDINBORO PA",-80.13100433,41.87437439,110
"1491","EDINBURG TX",-98.16417694,26.30259705,200
"1492","EDINBURGH IN",-85.96690369,39.35437775,3
"1493","EDISTO BEACH SC",-80.33158112,32.48329544,1
"1494","EDMOND OK",-97.48453522,35.65326309,323
"1495","EDMONDS WA",-122.3799057,47.81037521,402
"1496","EDNA TX",-96.64674377,28.97920609,11
"1497","EDWARDSVILLE IL",-89.95322418,38.8115654,731
"1498","EFFINGHAM IL",-88.54359436,39.12008667,20
"1499","EL CAJON CA",-116.9467392,32.83002472,8
"1500","EL CENTRO CA",-115.56460571,32.79199982,15
"1501","EL CERRITO CA",-122.31425476,37.91544342,234
"1502","EL DORADO AR",-92.66680908,33.20800018,6
"1503","EL DORADO KS",-96.86262512,37.81741714,4
"1504","EL LAGO TX",-95.04547119,29.56394196,57
"1505","EL MIRAGE AZ",-112.32630157,33.61337662,4
"1506","EL MONTE CA",-118.0298996,34.06880569,87
"1507","EL PASO TX",-106.46205139,31.78388405,958
"1508","EL RENO OK",-97.95549011,35.53218842,14
"1509","EL SEGUNDO CA",-118.4185257,33.91943741,39
"1510","ELAINE AR",-90.85227966,34.30869293,3
"1511","ELBA AL",-86.06761169,31.41489601,5
"1512","ELBERTON GA",-82.86587524,34.11487579,3
"1513","ELDON MO",-92.58213806,38.34849548,7
"1514","ELDORADO IL",-88.43813324,37.8138237,1
"1515","ELDRIDGE IA",-90.5848465,41.65792465,2
"1516","ELGIN IL",-88.28123474,42.03733444,54
"1517","ELGIN MN",-92.25218964,44.13041306,1
"1518","ELGIN SC",-80.79399872,34.17118073,36
"1519","ELGIN TX",-97.37094879,30.34980202,4
"1520","ELIDA OH",-84.20368195,40.78894424,1
"1521","ELIOT ME",-70.79924774,43.15354538,1
"1522","ELIZABETH CITY NC",-76.22274017,36.3025322,36
"1523","ELIZABETH CO",-104.59734344,39.36034393,2
"1524","ELIZABETH NJ",-74.21881866,40.66823578,63
"1525","ELIZABETH PA",-79.88930511,40.26922607,1
"1526","ELIZABETHTON TN",-82.21013641,36.34902954,33
"1527","ELIZABETHTOWN KY",-85.85932159,37.69418716,27
"1528","ELIZABETHTOWN NC",-78.60453796,34.629673,2
"1529","ELIZABETHTOWN PA",-76.60209656,40.15314865,37
"1530","ELK GROVE CA",-121.37435913,38.40848923,1487
"1531","ELK GROVE VILLAGE IL",-87.97052765,42.00406647,2
"1532","ELK POINT SD",-96.68419647,42.68325424,11
"1533","ELK RAPIDS MI",-85.41677856,44.89548111,1
"1534","ELK RIVER MN",-93.56745911,45.30422974,3
"1535","ELKHART IN",-85.97689056,41.68212128,61
"1536","ELKHART TX",-95.58008575,31.62545013,1
"1537","ELKHORN WI",-88.54447174,42.67270279,2
"1538","ELKIN NC",-80.8482132,36.24475098,8
"1539","ELKINS WV",-79.85980225,38.92602921,5
"1540","ELKO NV",-115.76439667,40.83226395,37
"1541","ELKTON MD",-75.83261108,39.60694122,6
"1542","ELKTON VA",-78.6230011,38.40836716,1
"1543","ELLAVILLE GA",-84.30872345,32.23843384,1
"1544","ELLENSBURG WA",-120.55075073,46.99611664,55
"1545","ELLETTSVILLE IN",-86.62473297,39.23396301,9
"1546","ELLIJAY GA",-84.48228455,34.69475937,2
"1547","ELLSWORTH ME",-68.41850281,44.54365921,1
"1548","ELLWOOD CITY PA",-80.28616333,40.86182404,1
"1549","ELM GROVE WI",-88.07917786,43.04312515,1
"1550","ELMHURST IL",-87.9407196,41.89970398,45
"1551","ELMIRA NY",-76.80737305,42.08998108,100
"1552","ELMORE AL",-86.31501007,32.53902054,3
"1553","ELMWOOD IL",-89.96702576,40.77780151,6
"1554","ELMWOOD PARK IL",-87.80945587,41.92121506,2
"1555","ELMWOOD PARK NJ",-74.1175766,40.90429306,18
"1556","ELOY AZ",-111.55596924,32.75610733,2
"1557","ELSA TX",-97.99377441,26.29435349,3
"1558","ELSBERRY MO",-90.78118896,39.16703796,6
"1559","ELWOOD IN",-85.84185791,40.27725983,1
"1560","ELY IA",-91.58531189,41.87372589,4
"1561","ELY NV",-114.89070129,39.24752045,1
"1562","ELYRIA OH",-82.10734558,41.36825562,108
"1563","EMERSON NJ",-74.02526855,40.97657013,1
"1564","EMERYVILLE CA",-122.28714752,37.83127975,13
"1565","EMMAUS PA",-75.49610138,40.53958893,37
"1566","EMPORIA KS",-96.18218994,38.40393448,13
"1567","EMPORIA VA",-77.54174805,36.68619919,2
"1568","ENCINAL TX",-99.35529327,28.04174042,1
"1569","ENCINITAS CA",-117.29370117,33.0371666,45
"1570","ENDICOTT NY",-76.04867554,42.09862137,2
"1571","ENFIELD NH",-72.14303589,43.65077209,1
"1572","ENGLAND AR",-91.96916962,34.54467392,2
"1573","ENGLEWOOD CO",-104.9884491,39.6479187,44
"1574","ENGLEWOOD NJ",-73.97172546,40.8928833,50
"1575","ENGLEWOOD OH",-84.30197144,39.87775803,1
"1576","ENGLISHTOWN NJ",-74.35713196,40.29751205,3
"1577","ENID OK",-97.87895203,36.39573288,9
"1578","ENNIS TX",-96.6258316,32.32971191,3
"1579","ENTERPRISE AL",-85.85494995,31.31528282,14
"1580","ENTERPRISE MS",-88.82051849,32.17414474,1
"1581","ENUMCLAW WA",-121.99360657,47.20384598,4
"1582","EPHRAIM UT",-111.58812714,39.35956573,2
"1583","EPHRAIM WI",-87.16837311,45.15630341,3
"1584","EPHRATA PA",-76.17801666,40.17980194,4
"1585","EPPING NH",-71.08043671,43.03881454,1
"1586","ERIE CO",-105.05065155,40.0500946,4
"1587","ERIE PA",-80.08492279,42.12926483,367
"1588","ERLANGER KY",-84.60089111,39.01673508,10
"1589","ERWIN TN",-82.41162109,36.15189362,10
"1590","ESCANABA MI",-87.06468964,45.74517822,9
"1591","ESCONDIDO CA",-117.08862305,33.11952591,52
"1592","ESSEX JUNCTION VT",-73.11017609,44.49057007,17
"1593","ESSEX MA",-70.78186798,42.63206863,1
"1594","ESSEXVILLE MI",-83.84166718,43.61558151,3
"1595","ESTACADA OR",-122.33534241,45.28915405,2
"1596","ESTERO FL",-81.80654144,26.43899536,14
"1597","ESTES PARK CO",-105.52495575,40.37337112,23
"1598","ESTHERVILLE IA",-94.83354187,43.40145493,1
"1599","ESTILL SPRINGS TN",-86.12779999,35.27093887,2
"1600","ETNA PA",-79.94859314,40.50443268,1
"1601","EUCLID OH",-81.52645111,41.59303284,11
"1602","EUDORA KS",-95.09897614,38.943367,1
"1603","EUFAULA AL",-85.1452179,31.89162636,2
"1604","EUGENE OR",-123.08983612,44.05194855,1588
"1605","EULESS TX",-97.08273315,32.83728409,98
"1606","EUNICE LA",-92.41770172,30.49472046,8
"1607","EUPORA MS",-89.26713562,33.54109192,1
"1608","EUREKA CA",-124.16533661,40.80156708,37
"1609","EUREKA MO",-90.62799835,38.50252533,29
"1610","EUREKA MT",-115.05457306,48.88105392,1
"1611","EUREKA SPRINGS AR",-93.73842621,36.40146255,3
"1612","EUSTIS FL",-81.68483734,28.85318184,5
"1613","EUTAW AL",-87.88775635,32.84085083,8
"1614","EVANS CITY PA",-80.06215668,40.76942062,1
"1615","EVANS CO",-104.69380951,40.37656403,10
"1616","EVANSTON IL",-87.69037628,42.04132843,389
"1617","EVANSTON WY",-110.96526337,41.26803589,53
"1618","EVANSVILLE IN",-87.56850433,37.97795486,389
"1619","EVART MI",-85.25918579,43.90063477,3
"1620","EVERETT MA",-71.05252075,42.40878296,104
"1621","EVERETT WA",-122.20454407,47.97843552,214
"1622","EVERGREEN PARK IL",-87.70169067,41.72086334,7
"1623","EVERMAN TX",-97.28966522,32.63102341,3
"1624","EVERTON MO",-93.70294189,37.34272385,1
"1625","EWING MO",-91.70560455,40.00642395,1
"1626","EXCELSIOR SPRINGS MO",-94.22633362,39.33908463,6
"1627","EXETER CA",-119.14376068,36.29608917,5
"1628","EXETER NH",-70.95800781,42.98471451,45
"1629","FABIUS NY",-75.98513794,42.83499908,1
"1630","FAIR GROVE MO",-93.15155792,37.38409424,3
"1631","FAIR HAVEN NJ",-74.03659821,40.35977936,152
"1632","FAIR LAWN NJ",-74.13076019,40.94062424,2
"1633","FAIRBANKS AK",-147.71856689,64.83367157,121
"1634","FAIRBORN OH",-84.01902771,39.82121658,21
"1635","FAIRBURN GA",-84.58108521,33.56713867,5
"1636","FAIRCHILD WI",-90.96333313,44.60019302,1
"1637","FAIRFAX CA",-122.59098053,37.98677063,5
"1638","FAIRFAX MO",-95.39389038,40.3384285,3
"1639","FAIRFAX VA",-77.30588531,38.84661865,504
"1640","FAIRFIELD AL",-86.91445923,33.49562073,1
"1641","FAIRFIELD CA",-122.04209137,38.24917603,77
"1642","FAIRFIELD CT",-73.26300049,41.14122772,19
"1643","FAIRFIELD IA",-91.96311188,41.00863266,13
"1644","FAIRFIELD OH",-84.56064606,39.34600449,19
"1645","FAIRFIELD PA",-77.36804962,39.78766632,1
"1646","FAIRFIELD TX",-96.16577911,31.72510147,1
"1647","FAIRHAVEN MA",-70.902565,41.63794327,9
"1648","FAIRHOPE AL",-87.90351105,30.52334213,4
"1649","FAIRMONT CITY IL",-90.09365845,38.65008545,20
"1650","FAIRMONT WV",-80.14244843,39.48347473,20
"1651","FAIRMOUNT GA",-84.69966888,34.43648911,7
"1652","FAIRVIEW PA",-80.25499725,42.03170013,7
"1653","FAIRVIEW PARK OH",-81.86431885,41.44171524,7
"1654","FAIRVIEW TN",-87.12164307,35.98221207,1
"1655","FAIRVIEW TX",-101.51995087,32.35611343,1
"1656","FALFURRIAS TX",-98.14491272,27.2275238,2
"1657","FALKVILLE AL",-86.90859222,34.36846542,1
"1658","FALL CREEK WI",-91.27741241,44.76337814,1
"1659","FALL RIVER MA",-71.15414429,41.70151138,38
"1660","FALLON NV",-118.77886963,39.47320557,15
"1661","FALLS CHURCH VA",-77.17056274,38.88268661,124
"1662","FALLS CITY TX",-98.01808167,28.98327637,1
"1663","FALMOUTH MA",-70.61294556,41.56003571,7
"1664","FARGO ND",-96.79805756,46.87498474,375
"1665","FARIBAULT MN",-93.26953125,44.29466248,13
"1666","FARMERS BRANCH TX",-96.89679718,32.92665482,17
"1667","FARMINGDALE NY",-73.44436646,40.73298645,10
"1668","FARMINGTON HILLS MI",-83.3771286,42.48558807,111
"1669","FARMINGTON IL",-90.00591278,40.69827271,1
"1670","FARMINGTON MI",-83.37620544,42.46465302,36
"1671","FARMINGTON MN",-93.14386749,44.64002991,9
"1672","FARMINGTON MO",-90.4220047,37.78110504,40
"1673","FARMINGTON NH",-71.07139587,43.38951111,10
"1674","FARMINGTON NM",-108.20515442,36.73355865,19
"1675","FARMINGTON UT",-111.88910675,40.98031616,2
"1676","FARMVILLE NC",-77.41796112,35.59592056,1
"1677","FARMVILLE VA",-78.39121246,37.30234909,17
"1678","FAYETTE MO",-92.68386078,39.14609146,12
"1679","FAYETTE MS",-91.06066895,31.71204758,1
"1680","FAYETTEVILLE AR",-94.15759277,36.06256104,418
"1681","FAYETTEVILLE GA",-84.45489502,33.44916916,20
"1682","FAYETTEVILLE NC",-78.87771606,35.05313873,485
"1683","FAYETTEVILLE NY",-76.0059433,43.02997971,29
"1684","FAYETTEVILLE TN",-86.57073212,35.15206146,20
"1685","FAYETTEVILLE TX",-96.67340851,29.90643501,2
"1686","FAYETTEVILLE WV",-81.10643005,38.05362701,1
"1687","FEDERAL HEIGHTS CO",-104.99935913,39.85155487,1
"1688","FEDERAL WAY WA",-122.31441498,47.32177734,232
"1689","FEDERALSBURG MD",-75.77262115,38.69446945,5
"1690","FELLSMERE FL",-80.59937286,27.77430344,1
"1691","FELTON DE",-75.57888031,39.00894928,1
"1692","FENTON MI",-83.70490265,42.79768372,29
"1693","FENTON MO",-90.43593597,38.51305771,457
"1694","FERGUS FALLS MN",-96.07798004,46.28308868,1
"1695","FERGUSON MO",-90.306633,38.74429321,941
"1696","FERNANDINA BEACH FL",-81.46240234,30.66996193,12
"1697","FERNDALE MI",-83.13441467,42.46089172,241
"1698","FERNDALE WA",-122.59371185,48.84636688,13
"1699","FERNLEY NV",-119.25421143,39.60798645,2
"1700","FERRIDAY LA",-91.55467224,31.63029099,2
"1701","FESTUS MO",-90.39609528,38.22088623,45
"1702","FILLMORE CA",-118.91975403,34.39930344,6
"1703","FINDLAY OH",-83.64990997,41.04424286,23
"1704","FINLEYVILLE PA",-80.00263977,40.25251389,1
"1705","FIREBAUGH CA",-120.45774078,36.85879517,3
"1706","FISHERS IN",-86.0140152,39.95565414,132
"1707","FITCHBURG MA",-71.79621124,42.58549881,15
"1708","FITCHBURG WI",-89.47031403,42.96075439,10
"1709","FITZGERALD GA",-83.25261688,31.71505928,4
"1710","FLAGLER BEACH FL",-81.12680054,29.47527695,66
"1711","FLAGSTAFF AZ",-111.65330505,35.19802475,269
"1712","FLAT ROCK MI",-83.29182434,42.09670639,3
"1713","FLATWOODS KY",-82.71713257,38.52272797,10
"1714","FLATWOODS WV",-80.64941406,38.7231369,6
"1715","FLEMINGTON NJ",-74.85857391,40.51246643,3
"1716","FLETCHER NC",-82.501091,35.43087387,1
"1717","FLINT MI",-83.68744659,43.01246643,701
"1718","FLORAL PARK NY",-73.70424652,40.72377777,6
"1719","FLORENCE AL",-87.67726898,34.7997818,135
"1720","FLORENCE AZ",-111.38915253,33.0316925,3
"1721","FLORENCE CO",-105.11975098,38.39019012,82
"1722","FLORENCE KY",-84.62657166,38.99923706,25
"1723","FLORENCE NJ",-74.80489349,40.11992264,2
"1724","FLORENCE OR",-124.10271454,43.98227692,5
"1725","FLORENCE SC",-79.76351166,34.19935226,143
"1726","FLORESVILLE TX",-98.15641022,29.13393784,7
"1727","FLORHAM PARK NJ",-74.38710785,40.7882309,1
"1728","FLORIDA CITY FL",-80.47893524,25.44846153,10
"1729","FLORISSANT MO",-90.32299042,38.78946304,982
"1730","FLOSSMOOR IL",-87.68474579,41.54309845,12
"1731","FLOYD VA",-80.31944275,36.91149902,65
"1732","FLUSHING MI",-83.85099792,43.06319427,28
"1733","FOLEY AL",-87.68378448,30.40701675,4
"1734","FOND DU LAC WI",-88.44734955,43.77285004,119
"1735","FONTANA CA",-117.43637848,34.09202576,58
"1736","FORDYCE AR",-92.41331482,33.81410217,1
"1737","FOREST CITY IA",-93.63772583,43.26252365,3
"1738","FOREST CITY NC",-81.86473083,35.33415604,2
"1739","FOREST GROVE OR",-123.11235809,45.51952362,32
"1740","FOREST HILL TX",-97.26972198,32.67246246,3
"1741","FOREST HILLS PA",-79.84965515,40.42011642,2
"1742","FOREST LAKE MN",-92.98565674,45.27859497,2
"1743","FOREST MS",-89.47438812,32.36502075,1
"1744","FOREST PARK GA",-84.36103058,33.62044144,3
"1745","FOREST PARK IL",-87.81355286,41.87948608,8
"1746","FOREST PARK OH",-84.50376892,39.2902565,10
"1747","FORKS WA",-124.38799286,47.94977951,3
"1748","FORNEY TX",-96.47270966,32.74848175,26
"1749","FORREST CITY AR",-90.79021454,35.00848389,7
"1750","FORSYTH GA",-83.93824768,33.03457642,2
"1751","FORSYTH MO",-93.120224,36.68517685,5
"1752","FORT ATKINSON WI",-88.83695984,42.92907715,13
"1753","FORT COLLINS CO",-105.08586884,40.58546066,964
"1754","FORT DODGE IA",-94.18049622,42.50019073,7
"1755","FORT GIBSON OK",-95.25126648,35.79767609,1
"1756","FORT KENT ME",-68.58863831,47.25884247,1
"1757","FORT LAUDERDALE FL",-80.14283752,26.12309074,1490
"1758","FORT LEE NJ",-73.96900177,40.85113907,10
"1759","FORT LUPTON CO",-104.80869293,40.07614517,21
"1760","FORT MILL SC",-80.94496155,35.00762558,60
"1761","FORT MITCHELL KY",-84.54763031,39.05939865,7
"1762","FORT MORGAN CO",-103.80197144,40.24989319,1
"1763","FORT MYERS FL",-81.87184143,26.64133644,261
"1764","FORT PAYNE AL",-85.71984863,34.44424438,5
"1765","FORT PIERCE FL",-80.32531738,27.44716644,20
"1766","FORT SCOTT KS",-94.70889282,37.83989716,6
"1767","FORT SMITH AR",-94.39919281,35.3862114,89
"1768","FORT STOCKTON TX",-102.88010406,30.89455986,3
"1769","FORT VALLEY GA",-83.88742828,32.5541687,14
"1770","FORT WALTON BEACH FL",-86.61834717,30.40767479,52
"1771","FORT WAYNE IN",-85.13967896,41.07278061,579
"1772","FORT WHITE FL",-82.71363068,29.92387581,1
"1773","FORT WORTH TX",-97.32135773,32.72562027,3106
"1774","FORT YATES ND",-100.62908173,46.09021378,2
"1775","FOSTER CITY CA",-122.27339172,37.55817413,11
"1776","FOUKE AR",-93.88582611,33.26132202,2
"1777","FOUNTAIN CO",-104.70175171,38.68201065,5
"1778","FOUNTAIN INN SC",-82.20529175,34.69663239,7
"1779","FOUNTAIN VALLEY CA",-117.95550537,33.70910645,3
"1780","FOWLERVILLE MI",-84.07279205,42.66091537,1
"1781","FRAMINGHAM MA",-71.41543579,42.27958298,37
"1782","FRANKENMUTH MI",-83.73799896,43.33162689,2
"1783","FRANKFORT IL",-87.8484726,41.49582291,4
"1784","FRANKFORT KY",-84.87322235,38.20124054,126
"1785","FRANKLIN IN",-86.05474854,39.48073578,14
"1786","FRANKLIN KY",-86.57696533,36.72238159,17
"1787","FRANKLIN LA",-91.50192261,29.79652786,16
"1788","FRANKLIN MI",-83.30574799,42.52250671,1
"1789","FRANKLIN NC",-83.38106537,35.17907715,3
"1790","FRANKLIN NH",-71.64609528,43.44426346,1
"1791","FRANKLIN NJ",-74.57991791,41.12214279,2
"1792","FRANKLIN OH",-84.30413055,39.55898666,1
"1793","FRANKLIN TN",-86.87760162,35.92164993,101
"1794","FRANKLINTON LA",-90.15345764,30.84731102,1
"1795","FRANKTON IN",-85.77852631,40.2229538,2
"1796","FRASER CO",-105.81874084,39.94474792,1
"1797","FRASER MI",-82.94940948,42.53918457,3
"1798","FREDERICK MD",-77.40981293,39.41444397,297
"1799","FREDERICKSBURG TX",-98.87243652,30.27570152,7
"1800","FREDERICKSBURG VA",-77.45996094,38.30348969,114
"1801","FREDERICKTOWN MO",-90.29403687,37.5598793,17
"1802","FREDONIA NY",-79.33128357,42.4403038,14
"1803","FREDONIA WI",-87.95108032,43.47070694,1
"1804","FREEBURG IL",-89.91384888,38.42782593,3
"1805","FREEDOM PA",-80.25327301,40.68782806,4
"1806","FREEHOLD NJ",-74.27283478,40.26020432,12
"1807","FREEPORT FL",-86.13587189,30.49859619,7
"1808","FREEPORT IL",-89.62126923,42.29691696,83
"1809","FREEPORT NY",-73.58229065,40.65803146,22
"1810","FREEPORT TX",-95.35985565,28.95484543,13
"1811","FREMONT CA",-121.97403717,37.55101776,379
"1812","FREMONT IN",-84.93248749,41.73084641,1
"1813","FREMONT NE",-96.49893188,41.43340683,4
"1814","FREMONT OH",-83.12195587,41.35057831,19
"1815","FRENCHTOWN NJ",-75.06065369,40.52624512,1
"1816","FRESNO CA",-119.77398682,36.74755478,1144
"1817","FRIARS POINT MS",-90.63935089,34.36989975,1
"1818","FRIDAY HARBOR WA",-123.01121521,48.53361893,1
"1819","FRIDLEY MN",-93.2636261,45.08617401,67
"1820","FRIENDSHIP WI",-89.81681061,43.97062302,1
"1821","FRIENDSWOOD TX",-95.20127106,29.53010368,21
"1822","FRISCO CO",-106.09901428,39.57444763,17
"1823","FRISCO TX",-96.82434082,33.15098572,254
"1824","FRITCH TX",-101.60410309,35.63983154,2
"1825","FRONT ROYAL VA",-78.19395447,38.91853714,21
"1826","FRONTENAC MO",-90.41536713,38.63556671,1
"1827","FROSTBURG MD",-78.92780304,39.65832138,10
"1828","FRUITA CO",-108.72994232,39.15882111,2
"1829","FRUITLAND PARK FL",-81.90615082,28.8618412,1
"1830","FRUITPORT MI",-86.154953,43.13179398,1
"1831","FULLERTON CA",-117.92686462,33.87014771,224
"1832","FULSHEAR TX",-95.90010071,29.69036102,1
"1833","FULTON MO",-91.94814301,38.84679031,6
"1834","FULTON NY",-76.41664124,43.32299042,1
"1835","FULTS IL",-90.21621704,38.16628647,1
"1836","GADSDEN AL",-86.00675201,34.01457596,64
"1837","GAFFNEY SC",-81.64937592,35.07206345,38
"1838","GAHANNA OH",-82.87860107,40.02072525,5
"1839","GAINESVILLE FL",-82.32462311,29.65203285,1054
"1840","GAINESVILLE GA",-83.82389832,34.29787827,150
"1841","GAINESVILLE TX",-97.13391113,33.62611008,3
"1842","GAITHERSBURG MD",-77.20072174,39.14352417,166
"1843","GALAX VA",-80.92372894,36.66142654,1
"1844","GALESBURG IL",-90.37152863,40.9480629,129
"1845","GALETON PA",-77.64122772,41.733181,1
"1846","GALLATIN TN",-86.44691467,36.38848495,30
"1847","GALLUP NM",-108.74343872,35.52494812,3
"1848","GALT CA",-121.30244446,38.25453568,4
"1849","GALVESTON IN",-86.19012451,40.57881165,5
"1850","GALVESTON TX",-94.79576111,29.30070114,113
"1851","GARDEN CITY ID",-116.24009705,43.62173462,7
"1852","GARDEN CITY KS",-100.87353516,37.97177505,6
"1853","GARDEN CITY MI",-83.33091736,42.32582092,4
"1854","GARDEN CITY MO",-94.19150543,38.56124496,11
"1855","GARDEN CITY NY",-73.63320923,40.72684097,7
"1856","GARDEN GROVE CA",-117.94371796,33.77397156,140
"1857","GARDEN PLAIN KS",-97.68421173,37.65839767,1
"1858","GARDENA CA",-118.31051636,33.88837814,66
"1859","GARDENDALE AL",-86.81273651,33.66012192,1
"1860","GARDINER ME",-69.77404785,44.23034286,12
"1861","GARDNER KS",-94.92789459,38.81066132,60
"1862","GARDNER MA",-71.99727631,42.57534027,6
"1863","GARFIELD NJ",-74.11222839,40.88159561,3
"1864","GARLAND TX",-96.63926697,32.91297531,132
"1865","GARNER NC",-78.61359406,35.71166992,48
"1866","GARRETT IN",-85.13555908,41.3495636,34
"1867","GARY IN",-87.33873749,41.59325409,166
"1868","GAS CITY IN",-85.61326599,40.48720932,3
"1869","GASSAWAY WV",-80.77455902,38.67528152,1
"1870","GASTON OR",-123.14157104,45.43574142,6
"1871","GASTON SC",-81.10059357,33.8172226,8
"1872","GASTONIA NC",-81.18706512,35.26216507,118
"1873","GATES MILLS OH",-81.40299225,41.51760483,3
"1874","GATESVILLE TX",-97.74459839,31.43569565,8
"1875","GATLINBURG TN",-83.50972748,35.71463394,1
"1876","GAUTIER MS",-88.628479,30.38991356,2
"1877","GAYLORD MI",-84.67483521,45.02762222,30
"1878","GENESEE WI",-88.35901642,42.9526329,1
"1879","GENESEO IL",-90.15467072,41.44804764,1
"1880","GENESEO NY",-77.81667328,42.79621887,3
"1881","GENEVA IL",-88.30541992,41.8876915,40
"1882","GENEVA NY",-76.97723389,42.86890793,19
"1883","GENEVA OH",-80.94763184,41.80530167,3
"1884","GENOA CITY WI",-88.32978821,42.49824905,14
"1885","GENOA IL",-88.6933136,42.09733582,3
"1886","GENOA NE",-97.73149109,41.44846344,1
"1887","GEORGETOWN CO",-105.69856262,39.70604706,4
"1888","GEORGETOWN KY",-84.55860138,38.21012115,26
"1889","GEORGETOWN LA",-92.38475037,31.76140976,1
"1890","GEORGETOWN OH",-83.90393066,38.86468124,1
"1891","GEORGETOWN SC",-79.28886414,33.37522888,3
"1892","GEORGETOWN TX",-97.67801666,30.6329689,83
"1893","GERMANTOWN OH",-84.36915588,39.62649536,1
"1894","GERMANTOWN TN",-89.80731201,35.08958817,13
"1895","GERMANTOWN WI",-88.1105423,43.22859573,17
"1896","GETTYSBURG PA",-77.23023224,39.83097076,45
"1897","GETTYSBURG SD",-99.95274353,45.01167679,1
"1898","GIBSONBURG OH",-83.32060242,41.38440323,1
"1899","GIDDINGS TX",-96.93708801,30.18294907,3
"1900","GIG HARBOR WA",-122.59068298,47.32983398,167
"1901","GILBERT AZ",-111.78999329,33.35302353,198
"1902","GILBERT WV",-81.86518097,37.61510086,3
"1903","GILLESPIE IL",-89.81998444,39.12971115,4
"1904","GILROY CA",-121.57034302,37.00583267,20
"1905","GIRARD IL",-89.78087616,39.44666672,3
"1906","GIRARD KS",-94.83834076,37.51137161,1
"1907","GIRARD OH",-80.70133209,41.15385056,1
"1908","GIRARD PA",-80.31739044,42.00037003,2
"1909","GLADSTONE MO",-94.55509186,39.20398331,97
"1910","GLADSTONE OR",-122.597435,45.38039398,5
"1911","GLADWIN MI",-84.48670959,43.98090744,1
"1912","GLASGOW KY",-85.91189575,36.99584961,114
"1913","GLASGOW MO",-92.84679413,39.22732925,1
"1914","GLASSBORO NJ",-75.11103058,39.70306778,83
"1915","GLASSPORT PA",-79.89176941,40.32497025,4
"1916","GLEASON TN",-88.61263275,36.21385193,1
"1917","GLEN ALPINE NC",-81.77864838,35.729496,3
"1918","GLEN COVE NY",-73.63267517,40.86247635,1
"1919","GLEN ELLYN IL",-88.06699371,41.87755585,4
"1920","GLEN ROCK NJ",-74.13186646,40.96286011,2
"1921","GLEN ROCK PA",-76.7299118,39.79356384,6
"1922","GLEN ROSE TX",-97.7556839,32.23469162,2
"1923","GLENCOE IL",-87.75849152,42.13492203,2
"1924","GLENCOE MN",-94.15203094,44.76893234,15
"1925","GLENDALE AZ",-112.18717957,33.5386467,122
"1926","GLENDALE CA",-118.25666809,34.1423645,605
"1927","GLENDALE HEIGHTS IL",-88.07187653,41.91030502,3
"1928","GLENDALE OR",-123.42523193,42.73606491,1
"1929","GLENDIVE MT",-104.71150208,47.11004257,6
"1930","GLENDORA CA",-117.86653137,34.13615417,29
"1931","GLENNVILLE GA",-81.92810822,31.93696594,4
"1932","GLENOLDEN PA",-75.28848267,39.90028,2
"1933","GLENS FALLS NY",-73.64286041,43.30945969,7
"1934","GLENVIEW IL",-87.78792572,42.06991196,6
"1935","GLENWOOD MN",-95.39015961,45.65030289,1
"1936","GLENWOOD SPRINGS CO",-107.32564545,39.55069733,9
"1937","GLIDDEN IA",-94.72888184,42.06323624,1
"1938","GLOBE AZ",-110.78813934,33.3945961,5
"1939","GLOUCESTER CITY NJ",-75.11563873,39.89209747,30
"1940","GLOUCESTER MA",-70.66117096,42.61589432,11
"1941","GLOVERSVILLE NY",-74.34265137,43.05316925,1
"1942","GODDARD KS",-97.57605743,37.65989304,3
"1943","GODFREY IL",-90.18669891,38.95780182,34
"1944","GOESSEL KS",-97.34946442,38.246315,1
"1945","GOLD HILL OR",-123.02426147,42.44165039,1
"1946","GOLDEN CO",-105.22267914,39.75567627,22
"1947","GOLDEN MS",-88.1887207,34.48841095,2
"1948","GOLDEN VALLEY MN",-93.33234406,44.98583603,78
"1949","GOLDENDALE WA",-120.82484436,45.82035828,12
"1950","GOLDFIELD IA",-93.92066193,42.73672485,4
"1951","GOLDONNA LA",-92.90959167,32.0173645,1
"1952","GOLDSBORO NC",-77.99216461,35.38506317,16
"1953","GOLETA CA",-119.82993317,34.43574142,11
"1954","GONZALES CA",-121.44611359,36.50678635,6
"1955","GONZALES LA",-90.92044067,30.23900986,7
"1956","GOODLAND IN",-87.2937088,40.76358795,2
"1957","GOODLAND KS",-101.71153259,39.35073471,7
"1958","GOODRICH TX",-94.9467926,30.60574341,60
"1959","GOOSE CREEK SC",-80.03201294,32.98114395,20
"1960","GORDONSVILLE TN",-85.92985535,36.17253113,2
"1961","GORE OK",-95.11740875,35.52949905,1
"1962","GORHAM NH",-71.17190552,44.38262939,3
"1963","GOSHEN IN",-85.8345871,41.58250046,27
"1964","GOWER MO",-94.60014343,39.61081314,4
"1965","GOWRIE IA",-94.29121399,42.28058243,9
"1966","GRAFTON IL",-90.43186188,38.97026443,3
"1967","GRAFTON NH",-71.94319916,43.55873108,1
"1968","GRAFTON WI",-87.95385742,43.31965637,1
"1969","GRAHAM NC",-79.39993286,36.06936646,9
"1970","GRAMBLING LA",-92.71523285,32.52869415,12
"1971","GRANBURY TX",-97.79492187,32.44239044,12
"1972","GRAND BLANC MI",-83.62955475,42.92750168,41
"1973","GRAND FORKS ND",-97.03855133,47.92044067,178
"1974","GRAND HAVEN MI",-86.22866058,43.06328964,20
"1975","GRAND ISLAND NE",-98.34256744,40.92502213,11
"1976","GRAND JUNCTION CO",-108.55207062,39.06374741,76
"1977","GRAND LAKE CO",-105.8245697,40.25669479,1
"1978","GRAND LEDGE MI",-84.74642944,42.7535553,5
"1979","GRAND MARAIS MN",-90.33486176,47.75009918,5
"1980","GRAND PRAIRIE TX",-96.99823761,32.74625015,187
"1981","GRAND RAPIDS MI",-85.66797638,42.96317291,1357
"1982","GRAND RAPIDS MN",-93.53067017,47.23724747,2
"1983","GRAND RAPIDS OH",-83.864151,41.41199875,1
"1984","GRANDVIEW MO",-94.53369904,38.88563538,14
"1985","GRANDVIEW WA",-119.90462494,46.25063705,1
"1986","GRANDVILLE MI",-85.76309204,42.90962982,16
"1987","GRANGER WA",-120.1894989,46.34181976,5
"1988","GRANITE CITY IL",-90.14891815,38.70147705,565
"1989","GRANITE FALLS NC",-81.43023682,35.79683304,5
"1990","GRANITE FALLS WA",-121.9720459,48.08432007,2
"1991","GRANT PARK IL",-87.64607239,41.24023056,2
"1992","GRANTHAM NH",-72.13131714,43.47785568,8
"1993","GRANTS PASS OR",-123.33063507,42.43851471,39
"1994","GRANVILLE IL",-89.2277298,41.26108932,1
"1995","GRANVILLE OH",-82.51766205,40.06572723,10
"1996","GRAPEVINE TX",-97.07859802,32.93464279,159
"1997","GRASS VALLEY CA",-121.06325531,39.21873856,9
"1998","GRAY COURT SC",-82.11286926,34.60851669,11
"1999","GRAY GA",-83.53361511,33.00989532,24
"2000","GRAYLING MI",-84.71489716,44.66165161,2
"2001","GRAYSLAKE IL",-88.04187775,42.34467697,11
"2002","GRAYSON KY",-82.94855499,38.33277512,2
"2003","GREAT BARRINGTON MA",-73.36142731,42.19623566,38
"2004","GREAT BEND KS",-98.76521301,38.36428452,42
"2005","GREAT FALLS MT",-111.28232574,47.50692368,27
"2006","GREAT NECK NY",-73.72780609,40.80078125,8
"2007","GREECE NY",-77.69234467,43.21003342,31
"2008","GREELEY CO",-104.71046448,40.42345047,102
"2009","GREEN BAY WI",-88.01370239,44.51335907,479
"2010","GREEN FOREST AR",-93.43527985,36.3351593,1
"2011","GREEN RIVER UT",-110.16318512,38.99538422,1
"2012","GREEN RIVER WY",-109.46805573,41.52866745,2
"2013","GREENBELT MD",-76.87561035,39.00544357,252
"2014","GREENBRIER AR",-92.38774872,35.2342453,2
"2015","GREENDALE WI",-87.99612427,42.94078827,3
"2016","GREENEVILLE TN",-82.83133698,36.16376495,60
"2017","GREENFIELD CA",-121.24597168,36.32072067,1
"2018","GREENFIELD IA",-94.46188354,41.30505371,2
"2019","GREENFIELD IN",-85.76914978,39.78491974,18
